LATITUDE,LONGITUDE,Estado,Cod6,Cod7,Municipio,Popula‡Æo Total,Popula‡Æo Urbana,Popula‡Æo Rural,Homens,Mulheres,HU-0 a 4 anos,HU-5 a 9 anos,HU-10 a 14 anos,HU-15 a 17 anos,HU-18 ou 19 anos,HU-20 a 24 anos,HU-25 a 29 anos,HU-30 a 34 anos,HU-35 a 39 anos,HU-40 a 44 anos,HU-45 a 49 anos,HU-50 a 54 anos,HU-55 a 59 anos,HU-60 a 64 anos,HU-65 a 69 anos,HU-70 a 74 anos,HU-75 a 79 anos,HU-80 a 89 anos,HU-90 a 99 anos,HU-100 anos ou mais,MU-0 a 4 anos,MU-5 a 9 anos,MU-10 a 14 anos,MU-15 a 17 anos,MU-18 ou 19 anos,MU-20 a 24 anos,MU-25 a 29 anos,MU-30 a 34 anos,MU-35 a 39 anos,MU-40 a 44 anos,MU-45 a 49 anos,MU-50 a 54 anos,MU-55 a 59 anos,MU-60 a 64 anos,MU-65 a 69 anos,MU-70 a 74 anos,MU-75 a 79 anos,MU-80 a 89 anos,MU-90 a 99 anos,MU-100 anos ou mais,HR-0 a 4 anos,HR-5 a 9 anos,HR-10 a 14 anos,HR-15 a 17 anos,HR-18 ou 19 anos,HR-20 a 24 anos,HR-25 a 29 anos,HR-30 a 34 anos,HR-35 a 39 anos,HR-40 a 44 anos,HR-45 a 49 anos,HR-50 a 54 anos,HR-55 a 59 anos,HR-60 a 64 anos,HR-65 a 69 anos,HR-70 a 74 anos,HR-75 a 79 anos,HR-80 a 89 anos,HR-90 a 99 anos,HR-100 anos ou mais,MR-0 a 4 anos,MR-5 a 9 anos,MR-10 a 14 anos,MR-15 a 17 anos,MR-18 ou 19 anos,MR-20 a 24 anos,MR-25 a 29 anos,MR-30 a 34 anos,MR-35 a 39 anos,MR-40 a 44 anos,MR-45 a 49 anos,MR-50 a 54 anos,MR-55 a 59 anos,MR-60 a 64 anos,MR-65 a 69 anos,MR-70 a 74 anos,MR-75 a 79 anos,MR-80 a 89 anos,MR-90 a 99 anos,MR-100 anos ou mais,RendaMedia_2012,Desvio_Renda_2012,Desigualdade_2012
-11.9283,-61.9953,11,110001,1100015,1100015 - Alta Floresta D'Oeste - RO,24392,13970,10422,12656,11736,525,605,668,438,301,632,580,572,481,499,457,321,255,170,165,143,105,50,3,0,551,575,624,440,303,671,646,572,573,490,394,298,239,194,175,116,84,48,7,0,431,468,588,392,231,473,473,379,397,414,389,310,234,181,136,96,49,42,3,0,401,459,521,307,176,424,393,344,344,312,326,217,192,117,89,61,35,14,4,0,1175.93,1018.96,0.87
-9.90571,-63.0325,11,110002,1100023,1100023 - Ariquemes - RO,90353,76525,13828,45543,44810,3117,3461,3920,2310,1477,3908,3589,3196,2854,2703,2131,1668,1209,828,624,459,302,241,30,3,3101,3430,3764,2331,1619,4012,3765,3382,3048,2715,2114,1543,1227,868,623,420,276,218,37,2,528,716,820,448,244,548,572,559,577,588,482,402,306,282,164,148,72,51,5,1,524,679,752,408,204,513,532,531,465,410,315,285,257,173,112,77,41,33,4,0,1252.34,988.74,0.79
-13.4945,-60.552,11,110003,1100031,1100031 - Cabixi - RO,6313,2693,3620,3266,3047,119,91,132,87,46,113,106,106,96,102,91,66,62,38,34,21,20,9,0,0,115,115,141,77,50,115,124,98,99,98,81,73,55,33,22,28,17,12,1,0,121,162,181,111,73,113,144,131,146,145,122,140,101,80,65,48,23,18,3,0,151,139,150,103,48,107,148,127,116,122,121,100,87,61,43,40,17,10,2,1,1192.04,1050.09,0.88
-11.4343,-61.4562,11,110004,1100049,1100049 - Cacoal - RO,78574,61921,16653,39124,39450,2326,2470,2820,1844,1259,3140,2801,2515,2309,2189,1864,1485,1047,720,508,426,264,278,42,0,2201,2325,2916,1871,1276,3346,2952,2831,2583,2305,1929,1561,1085,734,612,460,337,262,28,0,632,733,936,556,317,656,649,655,629,626,572,450,389,361,238,186,121,100,11,0,650,747,801,464,272,616,616,616,546,527,467,384,342,274,183,147,94,80,10,0,1552.76,1969.79,1.27
-13.187,-60.8168,11,110005,1100056,1100056 - Cerejeiras - RO,17029,14419,2610,8551,8478,540,595,722,466,289,640,585,545,475,521,480,342,262,215,171,143,84,73,4,0,523,582,671,454,272,710,634,571,570,536,482,330,254,253,165,108,78,62,11,1,86,105,119,80,40,125,96,94,112,118,101,81,63,51,52,35,26,13,2,0,86,75,123,82,36,85,95,111,92,93,66,76,57,48,31,26,19,9,1,0,1176.69,826.98,0.70
-13.1174,-60.5454,11,110006,1100064,1100064 - Colorado do Oeste - RO,18591,13657,4934,9330,9261,544,500,609,403,249,618,585,567,465,447,407,348,249,230,184,124,91,79,16,0,478,515,607,437,248,664,662,554,531,449,424,366,300,212,175,156,79,70,15,0,157,219,231,168,84,185,192,184,185,207,190,141,129,123,71,71,47,26,5,0,177,187,221,133,65,172,189,176,186,154,149,116,128,78,76,61,23,23,5,0,1080.07,740.27,0.69
-12.9551,-60.8947,11,110007,1100072,1100072 - Corumbiara - RO,8783,2590,6193,4711,4072,108,117,130,71,57,122,121,109,93,101,77,58,45,24,27,19,11,12,2,2,101,123,114,85,54,136,116,126,100,86,65,49,33,37,21,13,13,12,0,0,215,279,354,230,142,282,262,243,263,260,233,185,152,93,84,57,44,23,4,0,197,232,311,200,110,196,237,243,228,188,159,138,118,76,66,47,22,14,3,3,1170.96,937.81,0.80
-12.4367,-64.228,11,110008,1100080,1100080 - Costa Marques - RO,13678,7497,6181,7202,6476,379,428,473,254,154,332,364,324,242,209,177,148,112,76,67,52,27,28,3,0,406,421,435,235,140,321,340,302,221,192,158,143,102,91,50,38,21,28,4,0,326,343,390,238,110,261,290,251,243,217,197,120,125,106,56,41,25,12,1,1,294,334,376,184,88,240,263,250,214,146,119,127,77,46,37,19,9,4,1,0,1131.09,679.99,0.60
-11.5266,-61.0252,11,110009,1100098,1100098 - EspigÆo D'Oeste - RO,28729,20610,8119,14606,14123,872,863,996,566,414,1017,961,863,820,724,618,500,327,230,188,117,108,81,8,0,857,868,992,605,416,1051,999,936,760,680,573,464,330,266,204,150,100,75,10,1,340,372,440,244,155,325,323,354,329,287,278,223,208,183,111,84,39,35,3,0,304,374,421,232,120,293,326,322,294,224,200,205,169,118,78,45,35,22,4,0,1175.09,1055.38,0.90
-10.7889,-65.3296,11,110010,1100106,1100106 - Guajar -Mirim - RO,41656,35207,6449,20947,20709,1601,1785,1947,1093,704,1648,1485,1371,1257,1121,962,650,522,402,273,219,153,173,25,1,1578,1782,1880,1164,658,1633,1594,1513,1290,1119,964,716,562,460,306,229,170,166,27,4,495,467,409,198,143,300,271,234,213,174,133,115,102,104,80,57,31,24,5,0,447,429,366,210,110,205,207,196,174,130,101,72,74,66,41,32,15,15,4,0,1341.55,1266.84,0.94
-10.4318,-62.4788,11,110011,1100114,1100114 - Jaru - RO,52005,35118,16887,26005,26000,1296,1536,1669,978,693,1820,1796,1529,1248,1135,941,747,520,358,291,254,173,159,27,1,1436,1548,1735,1057,719,1759,1832,1649,1394,1210,893,773,582,450,311,261,182,131,22,3,666,779,918,546,333,721,713,693,630,594,542,421,370,289,225,175,117,89,12,1,662,770,807,488,295,724,736,653,585,497,441,362,312,232,206,128,87,57,10,1,1256.33,1499.57,1.19
-10.8777,-61.9322,11,110012,1100122,1100122 - Ji-Paran  - RO,116610,104858,11752,57824,58786,4243,4448,4816,3119,1958,5195,4991,4412,3814,3611,3142,2444,1842,1226,848,638,426,368,46,2,3993,4300,4729,3131,2139,5415,5237,4691,4199,3780,3247,2592,1889,1285,937,703,516,441,44,1,493,552,594,367,230,468,471,421,422,410,419,303,283,272,189,152,94,85,9,1,488,486,588,361,156,408,462,419,404,341,301,275,245,196,161,91,71,52,11,1,1279.71,1271.77,0.99
-9.44363,-61.9818,11,110013,1100130,1100130 - Machadinho D'Oeste - RO,31135,16173,14962,16536,14599,832,873,877,521,304,708,760,758,607,488,409,332,245,182,136,132,58,39,6,0,764,756,853,510,308,788,811,730,570,472,398,288,209,154,125,72,56,38,3,1,660,806,854,552,284,690,631,597,518,568,503,471,415,291,203,131,56,36,3,0,624,701,805,450,217,522,550,500,479,432,390,358,285,161,100,57,34,20,8,0,1183.60,840.91,0.71
-11.7247,-62.3127,11,110014,1100148,1100148 - Nova Brasilƒndia D'Oeste - RO,19874,8380,11494,10344,9530,295,350,441,262,162,376,382,367,323,267,245,157,123,114,101,78,55,45,3,0,337,386,386,272,168,410,404,378,344,260,221,194,139,118,81,61,49,26,0,0,397,508,689,482,229,510,496,495,452,429,360,325,254,215,140,109,63,41,4,0,420,479,556,386,213,422,424,429,430,328,302,284,221,166,110,58,38,26,3,1,1172.37,921.70,0.79
-10.7167,-62.2565,11,110015,1100155,1100155 - Ouro Preto do Oeste - RO,37928,28180,9748,18698,19230,1020,1162,1338,802,493,1389,1333,1114,941,880,882,636,462,371,246,187,136,131,18,0,1118,1166,1347,854,567,1427,1401,1217,1089,1101,901,683,520,372,308,257,151,140,19,1,373,424,510,336,208,443,395,381,361,377,340,235,205,180,144,112,82,46,5,0,346,422,450,304,163,393,402,364,341,298,252,212,183,155,136,85,46,35,4,0,1191.90,1047.33,0.88
-11.672,-61.198,11,110018,1100189,1100189 - Pimenta Bueno - RO,33822,29417,4405,17041,16781,1154,1281,1447,867,612,1583,1372,1208,1050,961,866,692,510,343,260,167,112,123,16,0,1126,1228,1391,927,562,1468,1409,1272,1137,1081,940,672,496,348,286,173,157,108,12,0,188,197,242,151,77,208,184,185,138,148,153,150,112,93,86,52,30,18,5,0,167,190,192,120,58,157,163,153,128,133,144,113,81,79,54,20,17,14,4,1,1105.32,822.76,0.74
-8.76077,-63.8999,11,110020,1100205,1100205 - Porto Velho - RO,428527,390733,37794,217618,210909,16528,16898,19182,11579,7625,20996,19765,17296,14094,13025,11375,8887,6109,4023,2614,1620,1044,956,140,12,15899,16541,18819,11800,7733,21285,20123,18013,15316,13519,11377,8851,6116,4146,2674,2001,1353,1181,206,12,1493,1751,1883,1037,893,3133,3055,2476,1831,1548,1341,1122,844,605,364,233,121,107,12,1,1440,1601,1654,845,477,1241,1248,1130,932,878,736,562,472,265,203,126,64,65,5,0,2218.47,2668.95,1.20
-11.169,-61.8986,11,110025,1100254,1100254 - Presidente M‚dici - RO,22319,13303,9016,11309,11010,483,550,633,392,265,574,562,517,423,448,401,334,245,183,141,121,103,97,6,1,464,582,626,418,267,590,603,531,503,462,425,370,289,230,139,149,76,91,9,0,320,375,459,314,190,377,380,307,336,334,317,288,251,200,162,95,68,46,10,1,303,353,371,279,123,341,325,313,316,298,296,251,199,138,106,82,44,37,10,1,1169.78,913.32,0.78
-9.69965,-62.9011,11,110026,1100262,1100262 - Rio Crespo - RO,3316,1064,2252,1767,1549,60,43,48,34,19,35,45,39,48,39,39,25,18,8,8,5,5,4,2,0,30,47,69,37,19,49,53,46,35,39,35,19,20,8,12,11,6,4,1,0,94,130,120,59,24,88,106,93,88,87,83,72,55,47,33,33,18,11,2,0,90,98,109,62,34,87,89,80,64,61,72,36,34,37,23,19,7,5,2,0,1148.16,841.54,0.73
-11.7271,-61.7714,11,110028,1100288,1100288 - Rolim de Moura - RO,50648,41429,9219,25170,25478,1610,1793,1922,1229,859,2101,1885,1766,1561,1397,1187,911,614,474,370,279,204,170,19,0,1565,1707,1928,1275,840,2210,2148,1881,1686,1517,1142,884,692,516,418,275,213,156,22,3,328,412,442,270,185,385,331,326,354,354,315,270,255,203,124,123,73,63,6,0,300,355,418,247,161,370,376,323,331,299,273,269,232,146,124,84,48,33,11,0,1143.20,1075.85,0.94
-11.9074,-61.7777,11,110029,1100296,1100296 - Santa Luzia D'Oeste - RO,8886,4525,4361,4596,4290,159,180,228,122,92,209,200,176,149,159,167,105,78,56,52,46,32,28,5,0,165,166,193,139,102,204,196,181,172,186,151,127,90,57,51,42,30,26,4,0,182,178,227,156,82,201,168,170,187,182,154,121,103,75,74,42,20,28,3,0,142,157,199,135,76,157,159,159,174,153,116,91,101,60,54,43,17,15,0,0,1150.26,688.63,0.60
-12.7502,-60.1488,11,110030,1100304,1100304 - Vilhena - RO,76202,72218,3984,37782,38420,3034,3168,3382,2031,1313,3645,3515,3065,2663,2511,2187,1626,1122,813,609,431,288,182,22,0,2972,3016,3414,2159,1429,3722,3607,3322,2903,2564,2175,1664,1158,883,640,445,308,201,29,0,147,232,217,125,70,150,138,160,152,162,142,132,108,80,75,42,23,17,3,0,174,180,199,103,44,133,147,128,142,120,98,106,87,65,37,20,15,6,5,0,1343.97,1429.03,1.06
-11.6953,-62.7192,11,110032,1100320,1100320 - SÆo Miguel do Guapor‚ - RO,21828,8470,13358,11328,10500,351,430,459,251,162,416,384,370,334,301,235,170,103,89,64,56,27,27,0,0,359,392,445,298,190,430,418,410,354,269,178,139,122,81,61,50,26,16,3,0,577,659,742,477,266,585,581,551,487,481,439,362,274,214,178,111,74,35,6,0,543,607,730,449,236,536,568,482,429,361,357,300,225,157,132,85,45,16,1,0,1169.63,1101.95,0.94
-10.4077,-65.3346,11,110033,1100338,1100338 - Nova Mamor‚ - RO,22546,13067,9479,11735,10811,652,725,711,385,226,561,603,587,452,398,355,250,186,168,96,92,61,59,8,0,645,746,749,404,249,591,615,577,467,369,300,235,201,111,97,61,36,34,4,1,450,563,594,314,159,418,399,418,371,367,326,258,180,145,85,57,37,16,3,0,448,484,520,291,162,359,407,358,313,249,212,176,143,84,54,37,4,17,1,0,1080.78,656.97,0.61
-11.3463,-62.2847,11,110034,1100346,1100346 - Alvorada D'Oeste - RO,16853,8824,8029,8678,8175,362,393,446,301,173,381,379,319,278,323,262,216,163,106,83,98,50,52,3,1,355,371,429,312,178,391,384,391,340,288,259,204,162,109,99,72,51,33,6,1,297,358,461,268,164,331,322,325,302,316,257,242,210,158,116,74,46,39,3,0,291,362,372,247,135,310,311,309,245,246,223,216,162,105,88,57,33,24,4,0,930.47,617.21,0.66
-12.132,-61.835,11,110037,1100379,1100379 - Alto Alegre dos Parecis - RO,12816,3657,9159,6739,6077,136,177,205,135,83,160,143,126,135,135,126,72,49,45,38,24,17,11,2,0,135,190,206,122,67,172,145,171,156,122,98,62,54,43,45,24,11,13,2,0,427,462,526,365,190,379,375,387,376,340,278,211,202,148,122,63,41,24,4,0,407,463,431,277,162,366,378,352,314,248,208,194,154,103,77,58,27,18,2,0,1212.12,908.55,0.75
-9.71429,-63.3188,11,110040,1100403,1100403 - Alto Para¡so - RO,17135,8202,8933,9022,8113,381,424,445,245,165,376,360,329,337,261,266,191,109,77,67,58,33,25,2,1,363,425,445,265,178,387,363,336,358,242,187,154,109,79,71,37,33,18,0,0,331,456,565,301,153,347,342,384,367,380,303,254,200,177,136,90,52,32,0,0,360,415,495,256,121,297,316,313,304,279,205,209,171,134,89,53,21,23,1,1,1224.64,1214.20,0.99
-10.1943,-63.8324,11,110045,1100452,1100452 - Buritis - RO,32383,18122,14261,16741,15642,862,883,926,540,355,874,917,854,673,595,457,379,233,208,147,91,66,47,10,0,868,898,967,602,386,915,974,820,652,544,409,325,231,140,115,83,38,31,7,0,629,786,846,479,255,624,583,608,582,530,410,359,317,236,178,112,61,25,4,0,598,768,748,431,242,554,594,556,486,376,351,330,235,153,115,52,22,23,2,1,1154.44,895.35,0.78
-11.6961,-61.9951,11,110050,1100502,1100502 - Novo Horizonte do Oeste - RO,10240,1733,8507,5336,4904,69,89,80,50,28,80,50,78,58,54,52,39,23,25,13,20,10,17,2,0,85,71,79,63,28,86,93,82,74,48,40,34,43,22,15,17,11,5,0,0,315,358,435,318,191,351,295,335,348,321,313,253,185,162,129,95,53,39,3,0,294,326,435,255,155,298,334,323,318,293,244,197,174,124,107,68,38,23,2,0,1081.29,897.06,0.83
-10.349,-62.9043,11,110060,1100601,1100601 - Cacaulƒndia - RO,5736,2069,3667,2965,2771,93,99,94,59,37,86,90,79,76,70,46,38,40,30,25,22,13,9,2,0,86,124,101,62,51,105,101,78,75,53,53,46,43,26,21,17,11,7,1,0,153,174,208,125,59,136,150,139,156,146,116,101,90,68,55,47,22,11,1,0,153,169,211,102,52,139,138,164,122,115,90,68,76,35,40,16,13,6,1,0,1108.25,973.97,0.88
-10.5712,-63.6266,11,110070,1100700,1100700 - Campo Novo de Rond“nia - RO,12665,3371,9294,6768,5897,169,196,174,111,42,136,168,139,127,125,86,86,49,35,33,15,9,9,0,0,177,190,180,94,70,157,176,158,124,85,77,72,35,23,16,12,9,5,2,0,406,505,545,333,187,410,438,343,369,383,285,267,208,158,87,71,40,22,2,0,423,475,502,259,172,343,339,360,308,260,236,210,139,88,53,34,19,10,5,0,1330.46,948.17,0.71
-8.7907,-63.7005,11,110080,1100809,1100809 - Candeias do Jamari - RO,19779,12887,6892,10320,9459,629,673,724,415,239,647,581,521,458,395,320,250,209,165,96,78,47,41,11,0,661,665,736,461,251,632,618,518,436,359,305,226,175,148,71,46,42,31,6,1,342,402,385,213,111,264,310,302,234,252,232,252,173,147,92,50,33,27,0,0,301,333,350,183,85,241,278,260,203,195,167,153,131,79,53,20,17,17,5,0,1352.02,945.75,0.70
-11.4253,-61.9482,11,110090,1100908,1100908 - Castanheiras - RO,3575,836,2739,1829,1746,32,28,40,26,9,29,45,26,34,32,35,24,8,8,7,6,4,2,0,0,32,41,52,35,18,38,44,29,36,23,28,17,20,9,6,5,4,4,0,0,81,118,151,87,41,103,102,116,112,102,89,60,60,81,60,42,19,9,1,0,94,114,133,100,40,101,83,94,104,85,82,61,71,57,33,29,5,17,2,0,1092.23,586.33,0.54
-12.5611,-60.8877,11,110092,1100924,1100924 - Chupinguaia - RO,8301,3663,4638,4415,3886,189,192,203,140,79,178,191,190,150,110,82,79,40,40,23,18,6,9,1,1,162,168,199,111,69,186,185,166,149,110,88,41,35,25,25,12,9,2,0,0,200,231,271,133,99,188,218,214,172,181,167,127,110,69,46,35,23,9,1,0,229,233,232,137,79,178,199,171,148,134,130,80,75,53,36,14,9,4,3,0,1255.24,1115.40,0.89
-9.36065,-62.5846,11,110094,1100940,1100940 - Cujubim - RO,15854,11043,4811,8456,7398,626,652,603,353,222,498,609,487,456,402,258,204,143,99,68,46,23,12,0,0,577,620,622,357,234,496,577,522,367,289,218,154,91,71,44,22,11,9,1,0,191,263,315,176,94,186,174,209,162,203,165,148,168,107,61,45,19,6,3,0,173,235,247,133,70,150,165,149,167,128,134,129,99,67,28,22,12,7,1,0,1282.45,967.33,0.75
-10.61,-62.7371,11,110100,1101005,1101005 - Governador Jorge Teixeira - RO,10512,2361,8151,5470,5042,96,107,120,58,43,113,94,75,86,86,72,46,33,29,24,21,10,9,2,0,96,118,130,84,59,102,109,121,92,81,57,61,37,32,23,18,12,5,0,0,289,391,490,293,144,382,351,325,288,302,283,200,182,147,116,76,42,40,5,0,327,402,404,252,148,309,309,286,264,237,212,183,159,115,72,55,34,28,9,0,1289.73,1142.31,0.89
-9.19687,-63.1809,11,110110,1101104,1101104 - ItapuÆ do Oeste - RO,8566,5222,3344,4565,4001,297,276,317,164,112,220,223,214,192,165,129,117,92,58,51,31,20,20,3,0,242,273,277,158,95,234,234,221,184,143,121,93,78,59,42,36,16,11,4,0,166,163,207,141,62,125,115,121,120,104,124,115,101,74,70,31,16,7,2,0,135,134,197,112,48,100,96,107,112,100,99,85,56,47,22,17,5,6,2,0,1340.51,865.27,0.65
-11.196,-61.5174,11,110120,1101203,1101203 - Ministro Andreazza - RO,10352,3074,7278,5304,5048,140,147,160,130,56,150,100,107,115,129,75,63,32,28,35,29,22,14,2,0,117,120,164,119,73,153,116,131,139,104,67,66,48,31,46,21,12,11,1,1,300,352,397,243,131,315,267,273,302,287,230,152,171,119,86,71,40,28,6,0,298,333,407,241,136,321,282,266,283,210,168,154,128,101,64,56,35,24,1,0,1251.21,879.86,0.70
-11.029,-62.6696,11,110130,1101302,1101302 - Mirante da Serra - RO,11878,6444,5434,6049,5829,261,318,334,198,108,275,270,259,231,197,174,122,108,81,59,75,60,39,5,0,247,332,355,211,142,310,280,275,235,202,157,132,114,78,79,51,33,30,6,1,193,273,281,210,107,212,233,232,211,176,170,141,128,96,71,60,46,31,3,1,196,253,294,160,87,209,230,188,181,134,143,164,106,66,63,42,22,21,0,0,1096.24,1017.84,0.93
-10.2458,-63.29,11,110140,1101401,1101401 - Monte Negro - RO,14091,7390,6701,7408,6683,347,393,428,208,139,309,330,305,272,225,187,158,130,84,62,61,46,27,3,0,349,366,387,228,161,327,382,315,261,202,188,140,123,80,69,51,23,23,1,0,271,362,433,237,132,254,251,273,253,285,208,181,153,143,112,81,38,26,0,1,227,333,361,190,95,233,255,254,214,173,168,140,135,79,75,37,26,11,1,0,1133.17,684.71,0.60
-10.9068,-62.5564,11,110143,1101435,1101435 - Nova UniÆo - RO,7493,1541,5952,3999,3494,52,82,80,63,37,70,56,64,67,50,33,32,25,16,19,19,3,8,0,0,57,62,81,55,29,60,70,84,65,36,42,30,25,22,20,9,9,8,1,0,251,290,397,260,104,257,243,233,233,210,195,151,131,93,71,48,23,32,1,0,231,243,280,205,129,223,237,216,199,176,160,119,109,66,59,34,30,12,1,0,990.05,596.30,0.60
-12.1754,-61.6032,11,110145,1101450,1101450 - Parecis - RO,4810,1774,3036,2595,2215,95,71,93,53,52,90,90,61,60,72,56,29,30,14,20,23,7,5,0,0,84,91,80,54,36,94,85,72,55,63,41,24,15,21,15,13,5,5,0,0,130,157,188,101,72,132,129,121,130,110,101,85,75,63,38,25,8,8,1,0,133,139,136,92,49,128,121,92,99,85,87,78,49,39,12,8,8,6,1,0,1061.28,645.30,0.61
-13.4823,-61.0471,11,110146,1101468,1101468 - Pimenteiras do Oeste - RO,2315,1292,1023,1218,1097,71,85,67,49,15,46,41,39,48,39,32,26,18,16,22,15,1,7,2,0,60,81,84,35,23,56,52,63,45,38,34,21,16,12,16,7,5,3,2,0,43,39,66,29,24,44,44,45,47,48,36,37,21,28,15,6,2,5,0,0,54,29,38,25,13,39,31,42,46,33,25,22,22,13,4,4,2,1,1,0,1168.58,898.15,0.77
-11.8295,-61.3153,11,110147,1101476,1101476 - Primavera de Rond“nia - RO,3524,1284,2240,1856,1668,51,65,73,42,24,52,55,52,35,40,49,26,26,26,14,14,11,9,3,0,55,42,77,32,10,45,61,53,43,40,43,27,24,21,13,12,4,15,0,0,69,102,132,77,32,90,99,92,74,88,84,57,67,39,32,27,10,16,2,0,61,104,129,75,26,81,71,90,90,77,54,56,51,26,29,16,11,3,1,0,1022.67,526.55,0.51
-11.9023,-61.5026,11,110148,1101484,1101484 - SÆo Felipe D'Oeste - RO,6018,1444,4574,3086,2932,44,55,64,39,30,71,63,63,35,63,47,29,27,20,18,9,10,8,1,0,63,58,75,46,28,75,74,72,64,47,41,22,24,19,14,9,12,4,1,0,166,192,226,139,69,149,174,201,174,176,161,140,131,95,83,57,34,22,1,0,141,192,222,138,75,156,192,179,166,139,133,128,104,76,57,37,25,18,6,0,1219.33,809.28,0.66
-12.052,-63.568,11,110149,1101492,1101492 - SÆo Francisco do Guapor‚ - RO,16035,8227,7808,8415,7620,402,424,473,221,154,391,377,362,324,227,198,157,135,109,73,50,33,22,0,0,400,377,456,270,190,405,372,400,306,252,180,153,122,89,48,38,16,17,4,0,362,429,452,311,162,362,348,297,327,297,253,212,159,124,76,58,28,25,1,0,322,375,422,212,145,299,293,289,253,216,211,141,121,89,63,31,30,13,0,0,1039.20,750.57,0.72
-11.8055,-63.0182,11,110150,1101500,1101500 - Seringueiras - RO,11629,4397,7232,6087,5542,192,259,260,147,80,208,168,176,174,147,127,81,58,41,38,25,20,17,3,0,179,206,245,167,108,198,212,194,168,155,95,79,54,26,29,29,21,9,2,0,262,367,423,266,151,322,308,301,263,266,240,209,191,103,65,72,37,19,1,0,285,359,378,239,118,285,263,246,262,205,199,156,138,87,69,39,21,15,2,0,1146.70,1001.28,0.87
-10.9056,-62.242,11,110155,1101559,1101559 - Teixeir¢polis - RO,4888,1716,3172,2540,2348,55,76,88,37,28,90,82,57,54,58,60,41,24,31,19,15,14,12,2,0,69,70,88,53,38,64,76,82,64,59,58,32,29,22,20,17,17,15,0,0,107,128,177,122,77,153,148,95,109,127,114,83,56,70,39,31,29,28,4,0,113,123,161,103,45,127,99,123,109,97,91,62,62,49,53,24,22,10,2,0,1081.09,965.86,0.89
-10.2483,-62.3538,11,110160,1101609,1101609 - Theobroma - RO,10649,1978,8671,5653,4996,91,74,103,54,40,70,89,71,86,58,65,57,26,29,23,14,8,9,2,0,79,102,104,73,31,83,100,99,74,51,56,47,34,24,25,13,6,7,1,0,341,426,517,292,180,363,378,369,325,290,314,232,219,159,112,79,56,29,3,0,339,412,442,265,136,286,337,330,300,241,232,174,176,115,66,72,38,20,6,0,1307.90,1123.73,0.86
-11.1261,-62.3639,11,110170,1101708,1101708 - Urup  - RO,12974,5137,7837,6731,6243,216,267,287,161,82,218,238,238,189,154,117,91,93,70,52,47,29,27,3,1,215,214,245,147,108,259,255,220,214,126,123,102,104,84,60,37,23,21,0,0,287,340,414,254,175,359,314,315,268,265,264,226,236,166,105,87,39,34,3,0,270,332,367,264,131,345,302,257,247,208,250,202,201,118,87,49,29,23,4,0,1261.35,1275.78,1.01
-9.86215,-62.1876,11,110175,1101757,1101757 - Vale do Anari - RO,9384,3192,6192,4979,4405,171,144,178,84,54,123,141,142,106,112,88,65,56,30,32,25,22,12,1,0,123,172,164,104,52,161,172,157,127,94,68,60,48,32,31,24,11,3,2,1,262,323,371,221,123,257,251,244,214,222,206,203,164,123,91,60,34,19,5,0,239,299,309,201,102,202,232,211,185,165,181,139,123,82,60,40,14,12,3,0,1136.47,660.66,0.58
-10.4465,-62.1352,11,110180,1101807,1101807 - Vale do Para¡so - RO,8210,2276,5934,4244,3966,88,101,134,66,48,88,97,76,76,71,63,60,39,27,22,19,10,7,1,0,88,113,125,74,45,96,103,121,95,80,60,47,45,32,21,21,7,9,0,1,219,237,333,215,118,243,250,234,221,249,212,170,134,113,68,64,38,30,3,0,194,248,294,210,92,247,241,215,202,171,166,146,112,92,64,35,29,22,2,1,1160.76,823.04,0.71
-9.82581,-66.8972,12,120001,1200013,1200013 - Acrelƒndia - AC,12538,5916,6622,6592,5946,334,322,354,172,118,261,249,221,201,148,140,101,83,72,60,49,38,20,3,0,296,350,358,213,118,263,299,267,184,158,130,84,80,62,50,27,15,14,2,0,312,393,497,249,132,266,271,269,245,212,198,169,158,114,67,38,34,21,1,0,319,347,410,202,107,220,225,222,192,197,145,116,107,67,41,25,23,10,0,1,1265.25,853.48,0.67
-10.9298,-69.5738,12,120005,1200054,1200054 - Assis Brasil - AC,6072,3700,2372,3091,2981,220,209,186,115,70,175,186,160,113,99,68,66,44,37,23,20,20,16,2,1,207,191,217,127,89,194,168,156,136,102,64,58,43,29,35,17,14,21,2,0,173,154,149,84,47,103,95,80,72,63,60,58,34,34,25,17,5,8,0,0,170,170,143,69,49,85,92,68,51,45,46,42,30,17,13,10,4,7,0,0,1607.56,1051.36,0.65
-10.995,-68.7497,12,120010,1200104,1200104 - Brasil‚ia - AC,21398,14257,7141,11037,10361,709,749,759,469,273,672,589,569,492,450,325,254,184,153,116,122,90,71,18,0,617,714,814,487,300,741,642,616,532,426,316,240,208,172,140,93,57,66,11,1,382,435,476,280,146,344,289,321,245,241,187,185,139,107,75,55,35,28,3,0,348,400,426,201,105,251,262,229,207,178,141,118,108,83,50,36,14,8,3,0,1126.37,804.23,0.71
-9.81528,-67.955,12,120013,1200138,1200138 - Bujari - AC,8471,3693,4778,4569,3902,196,220,237,128,71,161,127,161,114,107,82,67,50,47,44,21,15,27,2,0,172,203,208,115,77,181,158,182,115,98,68,64,58,44,24,17,13,16,3,0,251,298,365,166,76,191,218,226,171,149,113,123,115,87,76,34,14,19,0,0,242,254,272,129,72,184,185,148,106,102,92,96,83,50,35,13,7,13,3,0,1020.80,736.84,0.72
-10.566,-67.686,12,120017,1200179,1200179 - Capixaba - AC,8798,3929,4869,4655,4143,220,244,259,138,73,158,164,153,116,110,99,73,48,40,27,22,15,12,3,0,192,255,273,111,88,169,167,167,144,88,80,68,36,43,26,23,13,10,2,0,270,323,360,169,88,176,168,157,166,195,140,127,99,96,69,41,17,18,2,0,212,264,330,158,66,151,141,147,167,121,114,96,84,55,38,17,14,8,5,0,1259.46,786.03,0.62
-7.62762,-72.6756,12,120020,1200203,1200203 - Cruzeiro do Sul - AC,78507,55326,23181,39220,39287,2813,3055,3294,1765,1129,2775,2661,2261,1717,1298,1033,795,662,539,440,280,219,239,57,5,2709,2955,3424,1970,1282,2919,2801,2228,1807,1371,1094,992,736,549,520,357,266,228,67,14,1599,1758,1732,865,512,1034,971,839,662,500,386,338,292,232,185,134,71,67,6,0,1539,1615,1643,751,433,934,848,730,598,421,357,308,258,172,150,96,67,60,18,0,1148.12,1174.22,1.02
-11.0188,-68.7341,12,120025,1200252,1200252 - Epitaciolƒndia - AC,15100,10618,4482,7626,7474,504,592,545,333,196,521,459,406,367,288,226,169,129,113,106,81,61,53,7,0,522,536,597,383,224,553,565,448,351,294,255,167,160,116,108,74,47,47,13,2,237,248,295,190,72,172,169,166,184,166,145,108,111,66,61,32,26,20,2,0,227,216,278,127,78,146,148,164,136,144,103,77,65,43,23,18,11,7,1,0,1116.60,776.34,0.70
-8.17054,-70.351,12,120030,1200302,1200302 - Feij¢ - AC,32412,16636,15776,16716,15696,928,988,1069,600,359,813,695,580,476,394,338,248,165,167,133,98,91,71,22,1,909,1038,1082,599,373,802,732,594,479,420,288,235,212,197,175,107,57,87,13,1,1286,1269,1251,567,293,817,577,542,449,402,289,205,158,155,101,56,33,27,2,1,1255,1202,1105,507,260,646,528,442,338,284,190,181,117,87,77,30,24,18,5,0,1193.82,1011.60,0.85
-9.43091,-71.8974,12,120032,1200328,1200328 - JordÆo - AC,6577,2272,4305,3412,3165,170,151,166,95,43,131,90,89,64,42,34,26,18,7,6,5,0,4,0,0,157,182,171,93,44,106,100,85,61,33,33,26,9,11,5,11,2,1,1,0,404,390,356,154,85,199,161,129,109,85,61,42,33,12,14,10,7,17,2,1,412,372,315,143,79,165,140,102,78,64,40,37,24,19,16,12,3,9,3,1,1026.31,643.64,0.63
-7.61657,-72.8997,12,120033,1200336,1200336 - Mƒncio Lima - AC,15206,8750,6456,7836,7370,476,484,553,307,186,439,395,333,244,192,168,139,108,80,77,65,30,30,8,0,513,496,579,330,179,407,424,298,253,203,162,173,126,76,82,45,35,43,11,1,486,511,515,232,129,297,281,254,209,146,96,90,79,77,53,34,16,15,2,0,413,443,423,211,83,254,260,216,170,103,94,74,65,44,34,22,16,9,0,0,1429.50,892.56,0.62
-8.83291,-69.2679,12,120034,1200344,1200344 - Manoel Urbano - AC,7981,5278,2703,4255,3726,308,342,373,196,111,251,243,200,147,134,87,78,70,49,32,37,26,17,4,0,315,314,328,178,109,240,241,202,153,119,93,75,61,40,33,27,20,23,2,0,219,228,235,97,62,125,98,105,88,63,55,56,35,36,19,13,11,5,0,0,181,186,179,74,42,86,83,71,61,35,40,43,18,12,11,11,10,9,1,0,1417.24,799.90,0.56
-8.93898,-72.7997,12,120035,1200351,1200351 - Marechal Thaumaturgo - AC,14227,3969,10258,7463,6764,254,265,275,174,107,212,173,155,112,88,54,45,28,28,10,6,12,13,1,0,260,227,303,174,108,192,190,146,102,64,49,41,25,17,29,17,9,3,1,0,899,893,861,404,239,458,433,285,259,188,143,115,84,73,40,41,23,7,5,1,881,878,720,353,178,403,379,227,207,127,144,83,78,51,39,29,15,10,5,0,1152.88,653.67,0.57
-10.2806,-67.1371,12,120038,1200385,1200385 - Pl cido de Castro - AC,17209,10382,6827,8999,8210,568,619,593,365,208,469,440,365,320,289,243,178,150,122,90,85,50,65,6,0,558,590,690,332,190,458,407,383,360,283,251,152,148,104,86,77,48,35,5,0,360,445,432,255,132,262,252,251,233,221,200,192,162,146,87,66,39,35,4,0,312,369,426,197,81,225,232,224,205,168,146,133,129,81,55,37,14,15,4,0,1255.46,1031.19,0.82
-8.26323,-72.7537,12,120039,1200393,1200393 - Porto Walter - AC,9176,3323,5853,4794,4382,222,241,253,117,95,146,127,127,89,80,40,35,37,22,16,11,7,11,2,0,222,236,282,131,53,138,127,130,93,56,43,49,28,14,15,12,7,9,0,0,556,519,486,195,116,263,232,183,159,108,76,70,51,33,25,16,14,12,2,0,517,529,443,156,84,217,202,143,105,91,64,50,46,28,24,15,9,14,0,0,1131.73,451.45,0.40
-9.97499,-67.8243,12,120040,1200401,1200401 - Rio Branco - AC,336038,308545,27493,163592,172446,14087,14874,16288,9147,5837,14970,14678,12934,10627,9069,6982,5714,4358,2960,2098,1512,994,1103,190,15,13648,14363,16273,9840,6447,16312,16324,14855,11776,10191,7897,6501,4903,3472,2594,1870,1275,1287,258,22,1349,1445,1647,857,516,1568,1625,1294,997,824,725,589,531,425,311,194,140,108,8,2,1300,1358,1491,791,441,1200,1093,1007,722,732,553,478,390,282,224,124,65,71,12,4,2113.07,2566.30,1.21
-7.73864,-72.661,12,120042,1200427,1200427 - Rodrigues Alves - AC,14389,4315,10074,7479,6910,248,297,285,158,80,201,183,151,140,100,64,53,41,40,34,20,22,16,4,0,248,277,302,172,99,171,211,193,132,81,65,66,34,43,27,23,18,12,4,0,726,813,777,350,205,466,408,370,297,212,202,127,137,97,77,45,12,19,1,1,697,784,734,302,176,393,402,307,232,172,147,102,104,70,50,29,16,9,6,0,1120.89,429.93,0.38
-9.44652,-70.4902,12,120043,1200435,1200435 - Santa Rosa do Purus - AC,4691,1892,2799,2406,2285,138,149,119,77,45,127,103,66,54,39,32,19,17,16,6,1,2,1,0,0,124,116,127,70,35,85,79,67,53,37,25,27,16,6,4,4,3,3,0,0,258,245,169,96,41,141,112,108,56,41,31,27,14,28,12,7,5,4,0,0,283,256,183,79,50,134,115,74,69,35,27,18,19,30,16,9,2,5,0,0,1601.33,1090.71,0.68
-10.1497,-67.7362,12,120045,1200450,1200450 - Senador Guiomard - AC,20179,12703,7476,10328,9851,611,678,713,395,242,587,541,482,444,348,278,241,173,125,129,83,67,73,14,1,629,687,702,442,260,594,589,498,452,351,303,236,221,160,130,102,59,57,6,0,408,467,496,240,137,314,323,278,270,244,193,191,151,120,117,80,44,25,5,0,342,396,475,220,104,280,280,249,211,173,165,164,114,73,57,35,13,17,5,0,1160.74,783.67,0.68
-9.0659552,-68.6571045,12,120050,1200500,1200500 - Sena Madureira - AC,38029,25112,12917,19739,18290,1368,1454,1446,869,519,1325,1211,1028,740,609,433,407,298,250,222,151,137,134,27,6,1252,1331,1468,905,517,1280,1199,1017,756,599,458,389,328,301,228,166,126,124,31,3,753,845,987,484,294,686,591,502,411,321,367,258,223,145,112,51,46,23,6,0,705,790,840,400,238,552,469,421,336,265,224,174,178,87,58,33,20,15,5,2,1358.94,1339.00,0.99
-8.15697,-70.7722,12,120060,1200609,1200609 - Tarauac  - AC,35590,19351,16239,18353,17237,1156,1140,1249,723,428,927,851,681,550,433,367,231,225,176,142,127,99,83,25,1,1088,1171,1240,745,472,912,823,706,539,451,374,285,228,216,183,104,92,88,18,2,1436,1412,1292,622,319,691,661,489,379,338,280,229,193,127,99,69,53,40,10,0,1382,1348,1133,468,270,603,529,392,333,264,203,173,132,96,79,45,20,22,8,0,1323.34,1119.97,0.85
-10.6516,-68.4969,12,120070,1200708,1200708 - Xapuri - AC,16091,10330,5761,8317,7774,472,540,606,343,202,497,458,346,350,255,206,194,141,139,112,95,68,73,9,0,482,533,602,371,202,470,423,425,332,283,229,205,156,162,112,92,67,67,11,0,331,366,426,223,120,234,250,229,217,207,145,134,120,95,47,29,17,21,0,0,325,381,353,163,80,196,215,184,144,136,114,95,47,53,28,16,8,10,1,1,1152.85,780.43,0.68
-9.58138,-67.5478,12,120080,1200807,1200807 - Porto Acre - AC,14880,1982,12898,7845,7035,95,145,154,59,34,77,77,65,59,47,52,34,35,26,19,20,14,10,6,0,88,107,127,65,33,94,79,70,64,44,41,33,18,30,15,13,25,5,3,0,683,793,867,461,268,486,484,518,422,395,322,283,235,200,143,112,77,59,9,0,620,720,771,410,204,541,473,477,399,379,249,212,209,143,125,60,49,32,8,0,959.37,910.25,0.95
-3.22727,-64.8007,13,130002,1300029,1300029 - AlvarÆes - AM,14088,7887,6201,7416,6672,476,609,557,334,178,394,324,258,205,173,156,105,87,60,52,49,30,19,1,1,506,589,556,313,175,334,279,258,193,150,123,83,66,68,48,32,19,19,7,1,658,519,391,204,127,286,231,232,165,130,92,78,79,53,41,27,17,15,3,0,552,481,389,182,97,252,212,166,115,90,70,77,55,41,33,14,15,10,2,0,953.28,756.56,0.79
-3.37455,-68.2005,13,130006,1300060,1300060 - Amatur  - AM,9467,4960,4507,4902,4565,305,264,344,186,124,239,197,190,181,133,106,59,63,47,36,32,15,13,3,0,274,276,335,217,91,269,208,183,137,99,78,71,48,42,39,24,17,12,2,1,350,306,329,137,83,264,173,170,138,99,82,68,49,41,37,15,7,14,3,0,353,278,304,164,78,220,164,162,104,71,72,60,28,22,27,11,8,12,4,0,1133.10,1372.19,1.21
-3.56697,-61.3963,13,130008,1300086,1300086 - AnamÆ - AM,10214,4174,6040,5446,4768,248,261,288,153,95,213,178,176,128,117,85,55,45,32,29,31,16,18,1,0,228,293,260,144,68,206,188,131,132,83,69,64,43,24,26,19,13,12,2,0,361,417,455,219,131,316,270,245,216,149,143,88,56,63,66,37,25,19,1,0,338,393,373,193,126,245,232,211,150,112,99,77,54,46,39,39,20,12,4,0,993.96,752.99,0.76
-3.74603,-61.6575,13,130010,1300102,1300102 - Anori - AM,16317,10000,6317,8511,7806,589,551,644,340,246,507,411,411,342,287,205,150,119,90,88,74,45,47,10,1,522,547,613,338,215,469,413,407,333,214,200,132,104,79,88,70,50,36,12,1,446,505,490,225,147,309,259,230,186,142,120,83,63,39,49,26,19,14,0,2,397,456,477,240,127,237,269,178,155,118,92,52,49,44,38,13,9,7,5,0,1248.58,1380.00,1.11
-7.19409,-59.896,13,130014,1300144,1300144 - Apu¡ - AM,18007,10595,7412,9551,8456,483,571,628,348,186,500,455,457,393,337,284,242,193,140,92,59,31,25,2,1,484,574,678,322,220,541,509,423,327,268,280,167,156,74,69,42,21,9,4,0,321,349,417,244,130,457,400,401,291,261,234,189,156,130,76,35,19,11,3,0,332,342,353,191,115,399,364,301,202,189,160,120,98,49,41,13,10,9,0,0,992.60,612.68,0.62
-4.37055,-70.1967,13,130020,1300201,1300201 - Atalaia do Norte - AM,15153,6893,8260,7852,7301,372,398,449,311,198,431,322,236,178,167,142,92,81,60,45,16,26,17,1,0,420,365,449,288,174,376,312,227,205,147,114,89,65,35,31,27,11,12,4,0,683,551,539,289,170,464,370,285,253,180,143,92,80,62,52,46,32,17,2,0,644,622,456,310,164,403,332,270,218,166,121,60,47,36,43,30,9,19,0,0,854.18,767.66,0.90
-3.58574,-59.1256,13,130030,1300300,1300300 - Autazes - AM,32135,13893,18242,16989,15146,905,902,930,463,282,599,533,459,358,347,284,233,181,157,105,71,73,68,12,1,849,918,860,464,286,650,557,476,431,320,259,198,183,120,109,80,66,72,29,3,1225,1312,1326,729,378,803,694,669,537,500,472,317,308,217,205,132,104,80,16,2,1130,1170,1187,593,282,642,573,506,441,351,328,234,226,187,156,85,61,46,17,1,1148.86,719.75,0.63
-0.983373,-62.9311,13,130040,1300409,1300409 - Barcelos - AM,25718,11157,14561,13816,11902,566,617,703,408,271,659,603,399,327,296,229,198,186,113,111,74,47,32,5,1,538,604,681,425,223,573,472,376,288,253,217,175,158,98,80,61,49,34,6,1,734,818,1020,529,340,998,853,617,430,385,298,293,196,139,198,73,36,13,1,0,719,787,951,532,324,808,659,371,308,249,201,195,147,160,113,39,16,9,2,0,1042.36,815.30,0.78
-2.79886,-57.0679,13,130050,1300508,1300508 - Barreirinha - AM,27355,12418,14937,14312,13043,805,822,926,510,300,540,483,386,335,261,217,201,177,105,89,77,43,45,8,0,809,862,844,474,275,490,460,368,298,258,237,167,142,105,81,75,55,65,19,4,1135,1288,1077,526,302,618,553,491,418,312,310,223,185,150,135,99,67,76,17,0,1167,1164,1055,424,243,477,432,406,297,278,208,164,136,122,136,87,50,76,29,4,1146.24,1181.47,1.03
-4.37768,-70.0342,13,130060,1300607,1300607 - Benjamin Constant - AM,33411,20138,13273,17260,16151,1329,1289,1259,774,408,988,876,687,519,496,375,316,242,173,161,96,83,84,9,3,1367,1192,1204,746,467,1034,833,633,552,462,367,285,223,170,127,139,88,68,12,2,1164,1040,948,475,336,646,502,416,358,260,232,177,142,117,108,59,53,44,15,1,1089,936,832,480,258,581,438,317,296,218,173,140,125,88,81,62,25,30,11,0,1137.63,808.48,0.71
-3.89874,-61.3616,13,130063,1300631,1300631 - Beruri - AM,15486,7778,7708,8146,7340,531,575,544,297,141,364,293,232,226,172,135,115,96,57,53,54,42,29,8,1,505,558,544,290,166,332,328,252,171,142,145,95,86,56,46,33,27,28,8,1,620,672,550,295,177,334,284,212,209,158,155,120,110,94,76,56,34,23,2,0,618,614,544,243,103,280,222,174,147,142,112,77,80,55,53,18,14,24,6,1,2544.63,1545.70,0.61
-2.97409,-57.5873,13,130068,1300680,1300680 - Boa Vista do Ramos - AM,14979,7550,7429,7945,7034,460,550,527,335,153,334,309,274,212,150,141,107,99,63,51,48,36,32,7,0,416,541,537,281,159,336,296,247,196,145,136,107,76,44,54,29,25,26,10,1,522,538,577,277,182,367,313,253,216,182,157,120,117,84,59,28,28,26,11,0,491,526,523,225,126,284,238,194,157,123,129,89,86,44,50,31,24,20,12,0,988.09,546.49,0.55
-8.74232,-67.3919,13,130070,1300706,1300706 - Boca do Acre - AM,30632,19348,11284,15947,14685,1012,1114,1145,681,406,975,845,708,600,497,403,352,276,201,183,138,96,92,22,0,1031,1051,1156,666,385,893,847,723,603,480,399,322,275,239,186,137,88,89,31,1,694,806,864,453,264,529,452,438,374,313,235,194,176,123,131,64,54,32,4,1,680,737,725,363,197,387,384,345,310,221,173,154,124,106,73,49,30,20,5,0,998.14,925.69,0.93
-4.39154,-59.5874,13,130080,1300805,1300805 - Borba - AM,34961,14434,20527,18237,16724,831,879,958,578,340,700,605,474,391,309,265,233,213,148,108,97,64,66,25,1,794,865,884,570,307,677,584,484,395,301,294,223,206,143,112,108,67,95,38,2,1496,1498,1405,814,456,934,956,733,574,471,381,303,257,185,166,109,96,82,34,2,1485,1401,1363,656,411,889,799,624,425,357,283,233,192,126,114,79,31,71,35,1,1123.09,1703.08,1.52
-3.31537,-61.2206,13,130083,1300839,1300839 - Caapiranga - AM,10975,5140,5835,5812,5163,303,294,364,194,108,244,231,213,170,139,91,80,74,60,52,24,16,13,4,0,301,304,321,165,114,247,234,181,152,108,87,78,57,47,24,20,11,15,0,0,387,385,419,217,132,281,271,238,168,145,101,108,85,71,52,38,25,14,1,0,353,414,388,191,112,254,199,174,148,115,79,79,55,40,32,26,20,14,3,1,830.10,529.54,0.64
-6.52582,-64.3953,13,130090,1300904,1300904 - Canutama - AM,12738,6682,6056,6872,5866,388,430,433,243,154,341,295,254,203,170,144,78,86,53,54,39,34,22,4,0,335,397,424,283,132,337,277,238,191,132,132,83,104,52,59,32,30,15,4,0,293,310,339,160,89,283,341,388,232,201,223,180,132,103,87,41,27,17,1,0,264,287,300,142,81,227,265,229,137,162,159,119,87,57,52,23,9,7,2,0,1216.78,1175.06,0.97
-4.88161,-66.9086,13,130100,1301001,1301001 - Carauari - AM,25774,19744,6030,13259,12515,1220,1281,1458,782,416,955,763,685,529,452,381,291,245,162,170,89,83,64,9,0,1147,1278,1382,729,399,904,786,702,529,467,363,240,207,167,144,115,60,70,18,2,452,514,458,250,135,305,220,169,153,106,128,77,89,61,47,23,23,13,1,0,458,471,462,224,102,230,185,140,117,109,81,58,58,37,33,16,14,9,1,1,1278.40,998.12,0.78
-3.76803,-60.369,13,130110,1301100,1301100 - Careiro - AM,32734,9437,23297,16990,15744,560,609,638,339,173,416,356,383,311,253,184,144,115,89,85,57,40,40,6,0,545,557,603,327,171,403,435,397,298,225,148,138,128,82,65,44,41,25,5,2,1232,1441,1533,732,461,1008,963,973,789,696,589,514,404,278,250,133,104,83,9,0,1168,1425,1513,708,457,1005,959,875,660,584,418,387,299,216,167,130,80,45,9,0,1221.47,884.35,0.72
-3.3139999,-59.5557365,13,130115,1301159,1301159 - Careiro da V rzea - AM,23930,1000,22930,12688,11242,38,52,50,38,17,54,42,25,44,34,26,14,12,9,12,5,4,4,1,0,51,58,64,31,22,47,34,36,48,37,25,14,14,9,11,7,6,4,1,0,1172,1325,1471,837,424,1024,854,850,868,803,635,485,393,343,296,199,121,96,10,1,1122,1154,1302,801,419,928,825,799,773,564,497,392,327,257,228,140,95,87,11,2,1020.10,512.41,0.50
-4.09412,-63.1441,13,130120,1301209,1301209 - Coari - AM,75965,49651,26314,39476,36489,2983,3041,3111,1703,1061,2618,2300,1964,1483,1145,957,769,565,443,353,270,183,159,29,0,2809,2926,2960,1836,1079,2690,2249,1942,1335,1117,817,671,607,420,379,283,184,171,33,6,1643,1724,2031,1186,740,1694,1300,887,673,533,531,399,319,229,177,121,66,71,15,0,1593,1522,1770,980,692,1466,992,744,561,398,355,274,223,133,114,60,55,34,9,0,5716.48,6961.07,1.22
-3.83053,-62.0658,13,130130,1301308,1301308 - Codaj s - AM,23206,15806,7400,12107,11099,909,1050,980,567,326,828,694,667,452,383,305,234,193,159,152,89,64,68,9,1,823,1000,978,589,326,797,656,575,441,331,274,209,208,115,133,93,49,55,19,5,410,538,543,324,202,395,295,250,256,204,186,105,84,76,47,27,17,17,1,0,398,504,522,290,162,334,290,203,204,139,124,64,79,33,30,23,15,4,4,1,958.99,737.86,0.77
-6.65677,-69.8662,13,130140,1301407,1301407 - Eirunep‚ - AM,30665,22166,8499,15779,14886,1389,1378,1430,918,532,1115,966,781,590,505,382,336,239,182,169,107,80,91,13,2,1279,1376,1437,915,461,1053,843,815,576,458,444,336,253,220,192,128,88,67,19,1,768,753,585,294,161,402,375,250,211,191,141,130,100,69,74,34,12,19,5,0,770,699,544,256,145,361,276,195,161,120,114,75,70,52,42,29,11,5,0,0,761.22,726.43,0.95
-7.43789,-70.0281,13,130150,1301506,1301506 - Envira - AM,16338,10552,5786,8392,7946,600,694,727,427,257,539,479,374,289,239,182,127,104,60,57,44,64,35,14,2,650,645,769,403,243,492,452,382,267,238,173,129,103,82,74,61,35,34,4,2,469,455,448,202,113,305,236,253,142,121,90,56,52,36,36,25,26,11,2,0,473,429,419,175,110,250,201,186,116,90,71,44,54,29,27,19,7,8,0,0,1004.19,608.22,0.61
-2.52342,-66.0942,13,130160,1301605,1301605 - Fonte Boa - AM,22817,15115,7702,11824,10993,968,971,958,515,362,770,676,519,482,360,250,217,187,132,112,94,54,56,9,2,951,952,934,607,305,780,638,539,366,274,253,217,173,132,105,81,53,43,15,3,721,547,539,251,138,427,337,259,220,163,104,92,92,80,57,45,25,27,4,2,666,548,504,252,125,361,262,185,147,109,103,75,60,52,54,27,13,24,5,0,943.50,609.25,0.65
-7.53797,-72.5907,13,130165,1301654,1301654 - Guajar  - AM,13974,7427,6547,7265,6709,428,494,536,313,176,336,290,243,192,174,133,93,76,76,58,30,31,39,6,0,405,480,531,286,162,353,295,222,244,160,141,97,96,61,61,46,27,30,5,1,471,558,538,278,163,362,265,180,167,176,120,83,64,46,35,23,9,2,1,0,498,481,462,237,128,277,203,144,176,120,101,59,49,30,21,10,6,3,1,0,930.71,677.06,0.73
-7.51171,-63.0327,13,130170,1301704,1301704 - Humait  - AM,44227,30501,13726,23204,21023,1459,1758,2060,1116,660,1542,1364,1131,984,786,658,498,457,376,284,193,136,104,14,1,1402,1657,1919,1042,636,1522,1384,1197,914,752,610,476,408,295,269,176,125,111,25,0,836,938,1070,591,339,697,631,472,389,351,363,288,224,154,119,72,55,26,7,1,816,907,868,476,275,617,497,317,279,229,257,172,131,73,90,40,28,21,10,0,1133.79,850.14,0.75
-7.04791,-71.6934,13,130180,1301803,1301803 - Ipixuna - AM,22254,9499,12755,11355,10899,704,635,584,260,153,459,399,384,284,258,179,107,78,115,61,42,29,28,7,1,626,678,624,287,177,428,389,399,294,200,171,128,102,75,60,41,27,23,3,0,1159,1069,871,394,239,625,498,395,321,295,212,125,117,82,87,47,24,24,4,0,1125,1099,824,398,238,609,490,321,297,213,141,134,77,62,58,45,20,15,1,0,1114.25,842.44,0.76
-3.27479,-60.19,13,130185,1301852,1301852 - Iranduba - AM,40781,28979,11802,20996,19785,1784,1820,1823,975,571,1310,1229,1118,897,686,560,532,379,322,249,187,103,102,12,3,1723,1857,1769,1014,549,1311,1232,1116,837,686,525,468,368,281,195,171,110,75,29,1,603,714,756,411,230,506,456,451,391,393,316,277,227,180,178,124,72,38,11,0,591,704,714,357,191,428,392,398,291,307,253,205,172,155,111,86,53,45,11,4,991.07,820.66,0.83
-3.13861,-58.4449,13,130190,1301902,1301902 - Itacoatiara - AM,86839,58157,28682,44426,42413,3174,3327,3459,2054,1105,2609,2434,2210,1839,1512,1179,1022,799,595,470,359,281,248,52,4,3130,3228,3507,2118,1145,2791,2587,2316,1883,1483,1209,1059,831,638,503,378,269,267,69,14,1821,2010,1968,1015,572,1234,1153,1091,930,739,698,616,567,420,336,239,155,109,21,0,1661,1826,1814,859,417,961,1016,902,702,617,487,434,390,307,226,183,80,79,25,2,1306.44,1364.63,1.04
-6.438519,-68.2437363,13,130195,1301951,1301951 - Itamarati - AM,8038,4472,3566,4236,3802,285,300,312,188,114,261,187,173,116,113,73,48,31,46,34,10,14,7,4,0,249,266,326,164,91,226,210,155,129,109,56,37,43,41,31,10,8,4,0,1,314,293,246,125,62,184,138,155,99,69,51,67,34,29,22,14,9,9,0,0,277,284,237,85,50,135,156,122,67,55,45,48,25,25,15,1,8,9,2,0,988.52,745.64,0.75
-2.74081,-58.0293,13,130200,1302009,1302009 - Itapiranga - AM,8211,6451,1760,4299,3912,344,433,440,261,122,292,254,223,208,154,141,124,66,85,80,48,31,28,4,1,328,379,386,244,157,271,258,213,167,148,126,99,100,71,55,45,27,29,7,2,116,106,101,52,33,93,61,80,57,45,49,44,42,35,18,15,4,7,2,0,124,106,111,54,33,78,60,58,26,30,28,35,17,13,12,6,6,2,1,0,1858.38,1852.09,1.00
-1.88237,-66.9291,13,130210,1302108,1302108 - Japur  - AM,7326,3298,4028,3835,3491,233,222,249,135,73,151,153,120,81,92,64,39,36,11,10,7,7,13,5,0,236,215,235,126,70,163,142,123,85,61,36,35,23,12,6,10,10,8,1,0,287,260,302,127,99,245,158,154,111,114,88,69,32,22,29,17,9,11,0,0,280,249,248,153,82,213,150,133,87,92,69,44,19,24,19,15,8,9,0,0,1149.78,1006.74,0.88
-3.48438,-66.0718,13,130220,1302207,1302207 - Juru  - AM,10802,5686,5116,5548,5254,362,398,390,191,122,338,242,210,153,108,119,74,59,39,48,24,18,18,2,0,357,349,399,200,122,278,243,221,143,109,89,66,59,43,35,19,19,16,3,1,367,387,370,208,114,231,210,150,148,115,101,65,50,30,33,20,19,10,4,1,385,436,357,200,109,212,177,160,115,88,66,43,32,23,40,16,13,9,1,1,1047.48,895.56,0.85
-2.75814,-66.7595,13,130230,1302306,1302306 - Juta¡ - AM,17992,10552,7440,9432,8560,812,734,705,402,238,471,412,346,318,234,198,121,97,107,82,51,37,30,8,0,744,760,679,405,216,480,418,326,265,191,160,121,111,75,77,57,34,22,8,0,805,663,531,248,143,334,292,232,159,140,114,89,92,65,50,38,21,8,5,0,729,568,464,230,110,314,254,175,113,118,90,56,62,44,31,22,16,12,3,0,920.75,496.29,0.54
-7.26413,-64.7948,13,130240,1302405,1302405 - L brea - AM,37701,24207,13494,19638,18063,1370,1453,1547,872,533,1231,1084,854,671,604,507,383,305,238,217,134,93,97,14,0,1347,1456,1543,923,507,1136,1031,849,641,535,476,396,298,243,202,155,123,120,19,0,963,1058,921,476,266,717,614,492,394,308,319,263,243,135,138,60,42,20,2,0,926,952,822,387,229,569,493,396,279,251,212,170,124,93,65,50,33,11,1,0,980.91,735.43,0.75
-3.29066,-60.6216,13,130250,1302504,1302504 - Manacapuru - AM,85141,60174,24967,43461,41680,3269,3578,3842,2104,1311,2911,2453,2244,1754,1472,1187,973,746,580,548,412,299,243,41,10,3165,3466,3780,2170,1302,3000,2660,2274,1822,1471,1235,960,790,593,502,414,267,262,55,9,1590,1815,1958,942,536,1106,980,881,732,640,517,468,372,290,276,178,113,75,14,1,1518,1731,1676,808,404,990,875,702,607,487,399,351,280,216,176,121,64,63,12,3,1278.46,1446.36,1.13
-3.44078,-60.4612,13,130255,1302553,1302553 - Manaquiri - AM,22801,7062,15739,11744,11057,390,409,462,233,138,301,301,243,213,196,145,121,96,71,73,45,38,36,3,0,391,393,422,314,136,348,290,253,238,187,156,100,95,65,50,42,34,31,2,1,958,1050,1068,506,284,725,696,557,438,428,367,301,234,202,194,107,65,42,6,2,985,1103,1006,482,259,705,630,485,400,347,306,207,180,161,103,71,35,35,8,1,1127.58,1038.23,0.92
-3.11866,-60.0212,13,130260,1302603,1302603 - Manaus - AM,1802014,1792881,9133,879742,922272,82079,84002,89978,52422,32601,87731,89643,80763,66756,56317,45021,35535,25483,17372,11348,7872,4852,4266,647,61,79531,80740,89391,54841,34868,92363,94836,86538,71458,58086,47461,38718,28450,20392,14050,10435,7220,7193,1451,110,469,620,605,293,143,320,348,323,292,308,288,267,255,160,136,92,42,27,5,0,441,549,557,235,112,269,337,272,236,197,222,224,139,129,108,48,34,25,5,1,1959.27,2502.66,1.28
-5.80462,-61.2895,13,130270,1302702,1302702 - Manicor‚ - AM,47017,20349,26668,24684,22333,1055,1226,1323,800,476,962,832,726,599,476,437,296,307,224,201,138,105,82,25,2,1045,1165,1348,775,458,916,876,677,602,425,415,328,243,233,182,148,80,101,38,2,1714,1805,1892,1004,590,1310,1199,1004,825,738,573,495,377,315,231,142,96,65,17,0,1574,1697,1713,858,556,1200,998,872,681,522,435,353,236,171,163,88,79,69,11,0,1245.29,889.14,0.71
-1.85313,-65.573,13,130280,1302801,1302801 - MaraÆ - AM,17528,8753,8775,9407,8121,526,639,622,351,216,514,528,356,244,182,147,101,81,68,56,26,10,13,5,0,473,558,578,296,201,462,422,279,206,162,132,74,67,57,51,20,13,11,4,2,744,741,624,347,179,418,373,318,230,216,118,122,82,69,53,35,28,21,4,0,719,674,607,267,164,372,287,275,174,143,108,75,54,36,31,31,17,15,3,1,1021.90,771.48,0.75
-3.39289,-57.7067,13,130290,1302900,1302900 - Mau‚s - AM,52236,25832,26404,27283,24953,1466,1629,1592,937,580,1200,1079,881,704,574,549,461,395,224,170,152,176,132,28,1,1443,1475,1686,973,552,1241,1035,872,668,604,521,472,362,238,208,187,161,164,37,3,2168,2012,1863,980,540,1235,1036,873,701,553,555,506,463,277,186,144,126,123,9,3,2121,1962,1735,725,439,979,842,707,507,425,412,324,261,160,159,103,76,89,24,1,1241.89,1485.05,1.20
-2.20793,-56.7112,13,130300,1303007,1303007 - Nhamund  - AM,18278,7010,11268,9496,8782,334,380,435,296,176,350,283,269,218,165,151,119,94,60,74,45,38,41,5,0,320,419,436,267,181,281,305,253,202,149,156,128,95,82,63,50,45,36,9,0,679,798,763,378,265,500,470,390,308,305,270,212,150,131,120,99,65,47,13,0,708,778,732,360,205,423,405,344,259,229,194,155,138,103,111,60,45,41,14,1,1167.54,686.28,0.59
-3.90037,-59.094,13,130310,1303106,1303106 - Nova Olinda do Norte - AM,30696,13626,17070,15748,14948,782,850,882,537,304,634,515,448,371,286,302,225,195,118,102,85,61,95,23,1,811,840,909,538,281,623,513,415,361,311,274,209,185,135,101,72,68,105,53,6,985,1137,1183,622,375,907,761,598,539,406,398,331,210,137,110,82,65,73,13,0,985,1097,1115,594,400,899,701,542,443,338,309,211,154,100,79,51,41,52,26,1,935.22,611.80,0.65
-2.63637,-60.9434,13,130320,1303205,1303205 - Novo AirÆo - AM,14723,9499,5224,7607,7116,573,560,575,355,188,475,392,339,253,217,189,171,147,82,85,56,45,38,10,2,579,583,577,354,198,463,408,337,256,230,172,153,129,86,77,62,39,35,8,1,350,324,298,177,116,266,244,217,168,135,158,112,90,72,46,33,24,22,3,0,299,300,310,158,96,228,204,152,122,111,99,94,69,41,35,21,11,16,3,0,1127.92,846.52,0.75
-5.12593,-60.3732,13,130330,1303304,1303304 - Novo AripuanÆ - AM,21451,14074,7377,11429,10022,708,916,939,554,330,697,612,529,424,315,290,209,196,127,126,91,75,33,17,1,712,854,896,514,330,691,640,511,383,337,219,189,161,104,114,80,74,45,29,2,455,505,499,200,130,400,329,312,295,257,227,181,124,120,93,55,33,17,7,1,436,476,431,221,112,268,255,216,158,135,102,88,80,41,56,19,23,15,5,0,976.46,620.99,0.64
-2.63741,-56.729,13,130340,1303403,1303403 - Parintins - AM,102033,69890,32143,52304,49729,3649,4117,4465,2584,1523,3226,2817,2403,2052,1687,1482,1287,932,741,551,487,360,332,57,11,3566,4024,4518,2686,1500,3286,2936,2493,2035,1678,1449,1241,1002,802,583,463,406,371,76,12,2256,2558,2468,1243,661,1440,1225,1136,921,774,680,580,462,351,318,207,139,103,18,1,2205,2273,2182,932,543,1212,1088,902,725,556,525,392,303,263,180,139,92,74,15,1,1262.80,1503.11,1.19
-7.71311,-66.992,13,130350,1303502,1303502 - Pauini - AM,18166,9264,8902,9490,8676,576,668,646,331,220,462,396,330,233,212,167,128,76,80,62,33,34,31,3,0,612,673,621,308,204,438,405,305,222,182,162,120,89,85,57,42,31,16,3,1,677,667,621,308,191,559,426,342,246,185,117,148,108,81,50,35,23,15,3,0,654,592,592,233,156,448,361,286,179,135,132,102,68,61,46,28,15,9,3,0,1059.14,1284.31,1.21
-2.02981,-60.0234,13,130353,1303536,1303536 - Presidente Figueiredo - AM,27175,13001,14174,14350,12825,730,747,811,462,257,656,648,547,449,350,320,232,187,90,62,35,21,17,1,0,708,711,780,432,280,620,648,572,429,350,278,231,120,79,54,35,25,23,4,0,748,830,952,473,251,526,573,555,474,491,464,386,355,283,190,97,47,28,5,0,737,803,859,424,204,507,514,469,421,351,277,261,259,149,87,75,20,24,4,1,1868.31,2339.27,1.25
-2.7045,-59.6858,13,130356,1303569,1303569 - Rio Preto da Eva - AM,25719,12205,13514,13406,12313,710,711,777,381,246,614,599,484,383,289,235,201,150,93,95,52,39,17,8,0,742,676,698,414,261,678,618,479,443,275,217,168,141,105,83,48,40,29,5,1,588,748,816,403,287,707,636,637,538,493,356,357,261,193,137,80,49,33,2,1,602,757,731,356,263,668,580,484,436,339,254,236,183,118,83,55,26,16,4,1,1163.38,1055.91,0.91
-0.410824,-65.0092,13,130360,1303601,1303601 - Santa Isabel do Rio Negro - AM,18146,6856,11290,9322,8824,457,400,448,252,134,284,247,227,204,167,143,115,89,60,64,44,36,19,7,1,453,444,446,261,134,342,257,209,218,166,122,97,81,71,59,45,26,16,11,0,1022,869,751,344,238,628,391,344,303,291,170,133,118,100,68,67,55,29,3,0,1118,850,740,344,230,469,301,302,261,174,136,82,85,100,66,61,23,20,2,2,1355.91,1196.81,0.88
-3.09544,-67.9463,13,130370,1303700,1303700 - Santo Ant“nio do I‡  - AM,24481,12947,11534,12592,11889,929,910,905,458,279,642,533,441,364,283,231,152,151,105,76,64,42,45,14,1,940,915,830,461,251,617,488,474,320,239,192,134,143,101,80,41,35,49,11,1,835,841,881,416,244,551,479,425,319,245,234,141,116,71,56,35,25,38,14,1,866,822,778,413,276,528,444,381,273,216,163,112,111,52,43,34,15,31,9,0,981.08,609.12,0.62
-0.11909,-67.084,13,130380,1303809,1303809 - SÆo Gabriel da Cachoeira - AM,37896,19054,18842,19463,18433,1187,1064,1113,599,432,1025,890,738,606,506,393,295,254,157,131,111,60,58,15,0,1099,1106,1132,659,374,870,838,787,570,461,392,256,252,235,149,93,59,70,17,1,1254,1340,1232,637,377,802,675,662,602,480,424,328,294,234,174,135,83,77,18,1,1332,1303,1250,597,329,728,585,525,422,387,336,244,246,242,181,108,85,86,25,2,1187.35,1021.98,0.86
-3.47292,-68.9646,13,130390,1303908,1303908 - SÆo Paulo de Oliven‡a - AM,31422,14263,17159,16266,15156,955,1022,993,519,304,684,556,506,416,331,269,195,168,133,101,74,64,57,9,0,952,914,921,498,285,650,596,494,352,267,227,166,167,126,109,82,55,40,6,0,1208,1195,1169,610,398,832,728,586,485,508,336,209,158,140,135,92,52,63,6,0,1246,1212,1112,582,361,792,623,506,438,406,265,146,123,153,129,70,40,42,3,0,1055.48,597.81,0.57
-2.55915,-57.8731,13,130395,1303957,1303957 - SÆo SebastiÆo do UatumÆ - AM,10705,5904,4801,5680,5025,341,401,451,242,136,267,226,232,174,134,118,76,84,65,59,38,22,25,5,0,297,386,392,218,128,239,239,200,149,110,106,90,77,59,40,30,21,19,8,0,337,382,348,162,111,254,208,163,135,127,78,80,81,56,34,17,3,8,0,0,332,327,291,151,100,227,184,143,133,106,55,64,40,38,13,8,3,2,0,0,1109.59,845.83,0.76
-2.81748,-58.248,13,130400,1304005,1304005 - Silves - AM,8444,4029,4415,4498,3946,241,260,256,168,99,177,165,146,123,101,105,76,60,40,38,18,17,20,0,0,227,238,235,143,98,154,155,140,104,95,88,66,58,35,25,16,28,13,1,0,319,317,332,174,81,160,159,157,128,112,86,106,88,60,42,21,26,17,3,0,328,304,282,138,70,144,110,114,109,78,82,83,54,40,32,26,17,14,0,2,1135.42,1113.93,0.98
-4.2416,-69.9383,13,130406,1304062,1304062 - Tabatinga - AM,52272,36355,15917,26359,25913,2170,2256,2071,1199,732,1837,1607,1362,1155,955,742,591,429,310,214,179,106,110,23,1,2224,2236,2018,1237,829,1956,1697,1428,1141,908,714,540,409,298,246,156,124,107,34,4,1333,1236,1094,600,312,751,607,508,423,298,277,244,170,170,105,75,53,40,14,0,1287,1210,1077,568,326,665,514,456,332,252,215,187,143,136,107,69,30,27,6,0,1062.55,1012.53,0.95
-5.62085,-63.1808,13,130410,1304104,1304104 - Tapau  - AM,19077,10618,8459,10075,9002,623,700,701,431,253,562,437,401,307,245,216,169,144,99,75,68,31,25,10,0,528,636,645,423,258,511,483,395,289,228,190,146,120,84,68,42,36,32,7,0,668,645,640,312,212,443,387,290,202,184,161,122,113,51,63,45,30,9,1,0,616,647,541,288,162,374,335,198,146,147,127,83,65,56,36,25,22,12,1,0,867.20,1132.38,1.31
-3.36822,-64.7193,13,130420,1304203,1304203 - Tef‚ - AM,61453,50069,11384,31518,29935,3103,3215,3176,1823,1069,2597,2168,1911,1399,1177,935,724,590,453,389,262,174,174,33,3,2884,3154,3193,1806,1028,2517,2170,1836,1451,1072,859,699,582,469,335,247,171,170,45,6,1012,978,750,406,217,479,482,405,325,233,215,162,141,114,87,72,32,27,6,0,876,934,727,339,190,420,399,318,232,183,162,107,112,85,53,47,28,24,3,2,1513.58,2654.84,1.75
-2.86582,-67.7919,13,130423,1304237,1304237 - Tonantins - AM,17079,8899,8180,8777,8302,579,555,609,382,226,492,365,289,238,239,143,118,100,68,64,45,34,27,7,0,577,533,667,346,185,443,334,313,221,183,138,97,76,64,54,43,25,13,6,1,646,597,565,291,154,409,307,285,263,204,111,94,69,68,52,38,22,21,1,0,732,603,519,267,201,394,277,246,213,154,74,69,76,51,36,35,18,16,2,0,2428.10,1914.88,0.79
-2.99609,-65.1133,13,130426,1304260,1304260 - Uarini - AM,11891,6795,5096,6332,5559,487,520,454,236,131,304,293,275,183,156,109,94,65,64,34,27,17,21,2,0,456,497,420,274,144,314,308,235,177,125,92,80,63,46,36,20,13,16,7,0,469,412,352,160,108,239,264,192,168,112,102,77,55,50,42,20,16,21,0,1,387,359,291,141,85,226,174,167,96,71,53,49,38,40,24,14,9,9,2,1,1644.03,1594.62,0.97
-2.52936,-57.7538,13,130430,1304302,1304302 - Urucar  - AM,17094,9886,7208,8854,8240,548,660,627,371,187,412,390,365,288,272,246,172,136,109,115,72,53,37,7,1,563,590,577,400,210,389,372,323,273,241,200,131,164,112,90,77,34,57,14,1,495,548,539,272,131,274,243,239,202,187,169,125,116,77,69,39,36,24,1,0,519,588,527,223,121,253,236,186,181,119,110,108,68,68,42,25,23,21,4,0,972.04,602.25,0.62
-3.12841,-58.1496,13,130440,1304401,1304401 - Urucurituba - AM,17837,10448,7389,9529,8308,642,627,697,427,233,553,413,358,267,247,237,178,141,100,68,67,56,46,21,1,586,643,690,408,242,507,414,295,290,203,201,147,109,74,70,66,44,54,25,1,497,526,507,275,154,376,375,287,206,183,182,146,136,99,90,43,29,29,10,0,447,463,470,247,110,317,212,186,142,116,114,110,97,58,50,33,30,24,11,2,1166.81,644.21,0.55
3.64571,-61.3692,14,140002,1400027,1400027 - Amajari - RR,9327,1219,8108,4992,4335,64,79,84,41,32,38,56,45,33,38,33,21,25,9,9,9,10,4,1,0,66,73,68,37,22,50,53,48,47,29,17,29,19,7,11,7,1,2,2,0,695,641,502,273,140,367,285,246,230,195,199,169,136,93,86,40,23,38,2,1,683,595,475,214,120,291,282,212,166,169,130,129,87,72,51,35,14,20,2,0,867.60,390.12,0.45
2.98858,-61.3072,14,140005,1400050,1400050 - Alto Alegre - RR,16448,4780,11668,8676,7772,239,298,288,154,99,220,212,171,144,116,116,76,80,55,52,34,25,23,6,0,235,286,264,182,61,216,221,178,160,117,119,76,74,61,45,27,27,16,7,0,1025,935,807,377,200,432,467,352,291,291,290,212,213,124,103,75,47,21,6,0,989,899,733,317,171,386,377,328,261,231,189,172,114,86,67,39,20,17,4,0,1027.44,404.00,0.39
2.82384,-60.6753,14,140010,1400100,1400100 - Boa Vista - RR,284313,277799,6514,140801,143512,13401,13726,14811,8630,5625,14097,13933,12039,9664,8250,6833,5263,3747,2596,1647,1120,724,649,111,11,12883,13312,14788,8891,5920,14905,15036,13004,10200,8394,7044,5284,3791,2598,1726,1258,829,887,160,12,351,328,383,197,135,408,439,352,280,284,211,154,158,94,68,37,26,18,1,0,351,361,326,163,84,221,201,167,152,123,111,94,79,63,39,23,14,15,3,0,2071.00,2584.06,1.25
3.36161,-59.8333,14,140015,1400159,1400159 - Bonfim - RR,10943,3711,7232,5879,5064,268,237,247,136,64,153,138,149,94,96,61,48,54,36,32,31,7,15,4,0,224,246,233,120,71,155,141,155,110,93,69,57,35,43,37,20,13,15,4,0,544,591,536,271,158,301,270,230,214,186,160,157,139,93,67,42,25,24,1,0,541,483,457,214,115,224,225,172,162,144,107,109,95,53,49,30,23,16,4,0,1249.40,1181.38,0.95
2.60994,-60.6058,14,140017,1400175,1400175 - Cant  - RR,13902,2257,11645,7538,6364,141,150,145,68,45,92,90,65,67,58,52,49,34,30,14,8,8,12,1,0,120,155,148,95,36,110,92,92,70,54,47,27,32,22,13,7,4,4,0,0,675,799,824,435,200,417,416,353,372,366,377,320,289,234,148,103,45,30,6,0,662,690,778,344,145,342,332,335,309,292,250,243,189,137,71,61,31,19,5,1,984.04,503.29,0.51
1.82766,-61.1304,14,140020,1400209,1400209 - Caracara¡ - RR,18398,10910,7488,9732,8666,593,724,699,407,213,535,518,423,347,284,251,179,134,120,77,79,37,38,6,1,525,581,680,389,228,506,502,432,345,257,217,181,128,102,74,47,28,20,3,0,414,487,563,296,126,285,266,230,237,185,242,219,189,129,102,55,26,12,4,0,430,483,537,243,109,224,238,205,214,159,183,126,108,73,46,27,10,5,1,0,1094.93,1035.78,0.95
0.884203,-59.6959,14,140023,1400233,1400233 - Caroebe - RR,8114,3324,4790,4309,3805,180,190,187,102,57,148,164,144,108,85,85,70,31,46,23,17,18,10,1,0,175,197,203,110,72,160,166,130,110,82,68,61,39,33,21,14,7,9,1,0,269,287,320,198,80,210,213,197,158,161,129,123,90,85,51,35,19,18,0,0,263,275,246,133,87,186,189,152,133,116,99,88,61,44,36,17,9,11,2,0,1077.14,617.30,0.57
2.18305,-61.0415,14,140028,1400282,1400282 - Iracema - RR,8696,4078,4618,4600,4096,224,222,268,142,83,195,184,182,126,105,95,75,54,49,28,27,15,11,2,0,193,215,239,138,84,193,184,196,122,100,85,73,56,37,31,15,12,15,3,0,261,290,315,142,79,182,201,156,123,165,148,144,126,74,50,34,17,6,0,0,275,263,271,139,86,202,161,136,97,141,102,97,47,34,28,14,6,5,1,0,1034.87,735.92,0.71
2.43998,-60.9096,14,140030,1400308,1400308 - Mucaja¡ - RR,14792,8935,5857,7865,6927,469,494,515,302,172,443,414,352,304,263,211,159,131,106,79,63,35,28,6,0,407,505,518,319,160,420,438,371,258,233,190,173,117,92,68,53,36,26,5,0,320,361,376,191,120,227,236,248,207,190,191,180,143,144,90,58,21,16,0,0,314,340,344,164,79,167,191,186,161,142,100,114,103,45,47,20,9,10,2,0,1091.65,771.94,0.71
3.8853,-59.6204,14,140040,1400407,1400407 - Normandia - RR,8940,2311,6629,4678,4262,162,174,142,57,36,106,107,80,72,53,39,34,25,21,17,16,9,10,0,0,154,168,140,62,36,105,117,94,63,43,50,32,22,25,13,13,4,9,1,0,624,574,544,240,141,275,230,182,147,144,89,84,82,57,33,23,22,22,4,1,566,546,488,247,110,211,196,184,127,94,71,64,56,53,30,25,17,22,3,1,1602.09,1849.04,1.15
4.4799,-61.1477,14,140045,1400456,1400456 - Pacaraima - RR,10433,4514,5919,5408,5025,249,274,305,148,74,160,169,200,156,124,139,110,66,60,36,14,9,9,2,0,241,235,266,145,72,185,228,209,178,122,103,75,71,38,23,3,12,3,1,0,507,512,442,211,112,219,218,182,156,135,99,76,76,54,37,22,16,25,4,1,511,466,438,219,97,227,167,136,118,93,94,65,58,30,26,28,20,16,5,1,1226.02,1012.67,0.83
0.939956,-60.4389,14,140047,1400472,1400472 - Rorain¢polis - RR,24279,10673,13606,12923,11356,559,620,586,364,229,555,541,410,341,267,234,194,139,131,98,46,29,26,3,0,528,601,660,375,252,571,593,445,329,230,229,155,123,80,45,37,18,27,2,1,588,832,1008,597,314,736,610,501,401,428,402,324,275,255,114,91,43,23,8,1,576,739,908,422,226,512,547,376,400,334,297,249,194,117,67,41,23,22,5,0,1067.34,1025.70,0.96
0.951659,-59.9133,14,140050,1400506,1400506 - SÆo JoÆo da Baliza - RR,6769,4755,2014,3551,3218,262,245,287,156,89,221,252,192,155,139,95,73,60,60,48,29,20,14,0,1,259,259,303,158,86,256,248,203,130,114,92,67,65,48,28,23,11,4,3,0,108,129,134,83,44,91,115,93,61,62,50,54,41,41,25,11,7,4,0,0,80,114,99,49,36,92,61,62,66,44,48,39,21,22,16,5,3,4,0,0,1122.54,977.00,0.87
1.01019,-60.0419,14,140060,1400605,1400605 - SÆo Luiz - RR,6750,4455,2295,3568,3182,196,229,249,160,108,222,233,185,143,102,104,86,74,56,26,27,16,18,3,0,178,223,276,158,77,256,239,185,134,106,114,91,63,46,21,25,14,11,1,0,95,89,142,64,56,144,125,141,87,102,67,73,40,50,20,17,9,7,3,0,68,75,111,65,42,97,102,82,70,57,50,46,38,25,14,8,6,6,2,0,971.81,796.52,0.82
4.60314,-60.1815,14,140070,1400704,1400704 - UiramutÆ - RR,8375,1138,7237,4339,4036,94,93,87,50,27,58,38,32,26,23,29,17,4,10,4,4,3,1,0,0,84,93,67,40,28,43,49,36,27,19,13,12,7,6,7,3,2,0,0,2,742,644,525,245,142,291,258,194,165,142,111,88,64,30,29,33,23,10,3,0,703,635,526,250,136,275,216,158,120,137,91,59,36,39,43,35,18,17,4,0,814.49,428.00,0.53
-1.72183,-48.8788,15,150010,1500107,1500107 - Abaetetuba - PA,141100,82998,58102,71630,69470,3505,3841,4441,2838,1781,4290,4117,3475,2911,2451,1861,1470,1221,901,644,514,321,277,79,5,3417,3778,4464,2914,1842,4571,4178,3595,3028,2346,1854,1580,1224,968,804,592,366,385,126,23,3119,3334,3764,2305,1525,3321,2707,2086,1827,1493,1196,981,922,691,595,365,228,173,52,3,2944,3137,3613,2101,1265,2710,2321,1877,1567,1197,1032,879,788,609,473,361,241,212,81,7,981.81,637.25,0.65
-4.95333,-48.3933,15,150013,1500131,1500131 - Abel Figueiredo - PA,6780,6034,746,3533,3247,299,316,360,206,146,264,288,243,216,162,155,112,92,71,71,37,36,24,9,0,279,297,337,186,112,269,282,244,175,188,140,109,89,77,52,41,20,28,2,0,38,56,27,23,11,45,34,35,20,22,29,20,21,16,12,5,6,6,0,0,41,43,30,12,9,29,38,27,20,16,17,8,10,9,5,0,4,1,0,1,906.76,551.79,0.61
-1.95383,-48.1985,15,150020,1500206,1500206 - Acar  - PA,53569,12621,40948,28115,25454,704,741,786,456,250,576,507,448,406,318,233,188,164,119,126,96,74,60,14,1,646,699,752,446,302,625,557,482,423,356,232,172,161,139,140,84,55,49,32,2,2452,2550,2818,1556,964,2103,1829,1478,1372,1116,921,658,570,493,401,238,165,134,28,2,2417,2378,2425,1355,817,1852,1524,1276,1150,902,716,570,479,394,347,220,126,112,38,2,1220.00,1008.82,0.83
-0.154874,-50.3861,15,150030,1500305,1500305 - Afu  - PA,35042,9478,25564,18453,16589,516,617,600,378,210,466,410,348,304,223,159,139,118,65,57,59,42,36,3,2,490,603,619,380,220,436,405,333,286,229,161,126,120,94,83,57,38,33,11,2,1818,1863,1957,1064,582,1300,1060,834,702,592,478,385,341,218,198,127,96,74,11,1,1769,1813,1828,868,503,1035,904,698,545,436,374,296,236,153,159,108,59,57,21,1,1271.98,942.83,0.74
-6.79053,-50.4791,15,150034,1500347,1500347 - µgua Azul do Norte - PA,25057,4876,20181,13618,11439,289,231,229,119,93,288,291,216,179,141,109,87,72,34,34,31,18,16,1,0,246,225,231,138,100,274,308,216,162,134,100,74,65,35,40,20,19,9,2,0,777,956,1107,559,423,1201,1045,1237,1021,963,544,449,290,230,158,99,48,31,1,1,679,969,973,556,390,1034,1030,955,777,519,364,295,188,145,83,51,19,12,2,0,1242.42,971.78,0.78
-1.94623,-54.7384,15,150040,1500404,1500404 - Alenquer - PA,52626,27722,24904,27030,25596,1452,1541,1773,1013,597,1104,966,915,771,634,585,449,398,329,321,258,210,166,23,1,1429,1630,1716,1116,528,1170,1098,1028,821,675,576,532,476,357,344,274,196,207,39,4,1678,1806,1806,992,479,1049,1026,915,814,616,504,507,421,313,262,154,106,74,1,1,1606,1705,1630,738,390,870,835,778,663,490,406,357,309,214,142,97,82,51,16,1,1170.84,878.94,0.75
-1.5290376,-52.5788116,15,150050,1500503,1500503 - Almeirim - PA,33614,19965,13649,17468,16146,1043,991,1182,731,408,898,890,754,732,557,491,413,280,196,129,100,82,73,13,1,1045,1086,1191,749,416,968,908,848,666,550,424,343,233,178,152,88,67,69,20,0,905,956,890,491,265,658,588,509,458,403,396,307,231,160,118,76,60,26,7,0,865,846,860,423,249,533,483,420,343,273,225,205,148,93,76,52,21,19,10,1,1733.99,1469.65,0.85
-3.20407,-52.21,15,150060,1500602,1500602 - Altamira - PA,99075,84092,14983,49819,49256,3907,4188,4604,2636,1677,4060,4123,3344,2902,2415,2068,1663,1221,883,628,478,354,316,36,3,3765,4172,4553,2861,1747,4254,4327,3753,3043,2517,2031,1623,1133,900,698,503,332,315,56,3,871,859,880,494,322,727,622,570,567,520,471,399,358,244,184,108,67,38,8,4,844,839,809,389,253,569,558,483,411,333,299,278,225,142,100,67,36,34,1,0,2243.72,2906.34,1.30
-0.996811,-49.9354,15,150070,1500701,1500701 - Anaj s - PA,24759,9494,15265,12957,11802,607,673,654,352,221,466,397,317,272,193,146,109,90,74,68,35,28,24,9,0,637,620,615,369,192,537,394,325,289,171,150,110,99,59,66,45,44,29,7,1,1214,1210,1141,575,348,737,627,543,426,315,257,222,177,130,126,65,67,35,5,2,1197,1179,999,508,288,613,526,396,302,250,178,156,145,98,76,53,31,43,5,0,1292.71,699.75,0.54
-1.36391,-48.3743,15,150080,1500800,1500800 - Ananindeua - PA,471980,470819,1161,226635,245345,19014,20401,22738,13426,8588,22467,22670,20408,17818,15252,12477,10174,7561,5186,3275,2128,1224,1035,169,11,18244,19764,22216,14035,9222,24577,25085,23101,19944,17113,13702,11679,8683,6174,4188,2879,1948,1782,422,39,54,81,75,33,24,46,38,47,47,36,25,39,19,15,16,6,4,7,1,0,61,67,69,40,23,44,44,38,37,26,34,17,18,3,10,9,6,2,0,0,1201.79,1088.53,0.91
-3.46985,-51.2003,15,150085,1500859,1500859 - Anapu - PA,20543,9833,10710,10992,9551,581,596,565,371,202,451,477,354,318,281,209,194,131,91,69,53,29,17,2,0,564,552,588,395,258,487,455,383,305,223,178,142,109,73,51,41,20,14,4,0,680,641,734,379,233,555,480,469,340,333,274,245,243,156,117,57,43,20,2,0,636,636,584,308,167,459,411,323,261,222,201,170,129,79,53,29,25,16,0,0,1102.53,615.02,0.56
-1.0510867,-46.6146851,15,150090,1500909,1500909 - Augusto Corrˆa - PA,40497,18240,22257,20989,19508,1024,1078,1167,671,369,901,743,676,544,402,362,303,245,231,197,119,89,68,25,0,1064,1116,1069,662,361,840,793,620,499,423,333,285,275,214,168,118,85,74,26,1,1419,1469,1588,868,555,1146,942,741,612,536,414,386,340,267,193,118,103,69,9,0,1438,1473,1442,741,417,872,813,639,521,447,372,316,276,197,203,131,85,80,14,5,1355.92,842.40,0.62
-2.14898,-47.5677,15,150095,1500958,1500958 - Aurora do Par  - PA,26546,8168,18378,13620,12926,416,468,514,257,164,403,366,299,287,226,151,109,62,79,65,38,44,34,4,0,450,471,528,287,183,447,382,343,276,204,151,102,82,75,83,46,44,23,5,0,957,1048,1185,645,430,910,797,750,576,520,385,342,355,253,195,136,72,64,14,0,860,1073,1192,581,369,927,819,595,469,404,351,326,232,199,155,82,48,45,16,1,1199.97,821.61,0.68
-3.60841,-55.3199,15,150100,1501006,1501006 - Aveiro - PA,15849,3179,12670,8367,7482,182,187,233,120,80,139,114,117,100,72,65,60,47,38,37,29,17,11,0,0,182,183,194,104,52,141,123,109,80,73,49,63,50,29,31,30,19,16,3,0,743,935,956,510,287,476,429,397,354,342,301,231,222,171,140,103,56,59,7,0,787,813,905,447,220,432,452,352,286,263,218,217,187,108,99,69,37,44,14,1,1085.32,575.43,0.53
-1.90057,-50.1987,15,150110,1501105,1501105 - Bagre - PA,23864,10661,13203,12135,11729,705,686,751,429,245,553,455,349,283,189,150,145,79,96,81,47,28,33,11,0,664,700,783,426,241,549,499,374,252,179,167,139,97,83,66,51,25,32,15,4,1008,985,1000,466,274,599,545,481,377,310,171,155,140,115,81,58,25,18,12,0,971,1025,962,500,278,560,518,385,348,221,154,106,114,91,73,34,25,9,9,0,753.14,330.95,0.44
-2.79021,-49.6694,15,150120,1501204,1501204 - BaiÆo - PA,36882,18555,18327,19446,17436,964,1002,1146,676,429,979,858,802,551,478,359,313,260,178,180,136,88,65,4,0,798,1002,1155,618,368,969,849,732,586,472,370,261,244,189,149,153,85,68,19,0,1040,1260,1268,683,420,1024,847,746,570,502,371,323,293,232,205,97,48,41,8,0,1000,1193,1120,506,330,818,745,583,424,368,342,291,214,142,113,73,42,35,8,2,1230.86,969.55,0.79
-7.34779,-50.3959,15,150125,1501253,1501253 - Bannach - PA,3431,1282,2149,1847,1584,56,66,72,47,21,48,67,54,52,43,31,27,17,21,12,10,7,6,0,0,57,63,67,34,30,55,64,58,61,23,27,20,20,16,14,11,2,2,1,0,124,126,92,68,46,74,109,77,95,82,70,68,62,35,26,19,9,8,0,0,112,104,112,46,30,82,86,71,63,58,50,47,38,26,15,9,4,5,1,0,1141.28,768.63,0.67
-1.51187,-48.6195,15,150130,1501303,1501303 - Barcarena - PA,99859,36297,63562,50346,49513,1734,1841,2013,1225,763,1856,1702,1470,1169,1033,776,682,492,352,249,178,116,87,27,4,1734,1752,2058,1149,831,2038,1790,1619,1308,1031,807,660,517,382,277,207,156,152,55,5,3393,3504,3746,2203,1360,3188,3187,2602,2213,1815,1592,1324,872,594,394,262,167,119,39,3,3316,3241,3601,1982,1264,3253,3090,2630,2243,1778,1355,997,709,522,393,230,163,158,53,7,1859.72,2065.31,1.11
-1.4554,-48.4898,15,150140,1501402,1501402 - Bel‚m - PA,1393399,1381475,11924,659008,734391,50424,53201,59512,36547,23953,64013,64485,58046,51256,45220,38023,32169,24281,18079,12840,9190,5744,5067,776,34,47835,51310,58738,38444,25854,70301,71883,65425,57940,51313,44022,38250,30040,23777,17842,13686,9670,9915,2208,162,628,634,672,381,265,550,523,455,434,355,311,230,215,182,147,73,41,43,8,1,607,577,639,359,237,541,525,456,386,335,269,229,172,147,141,54,43,43,12,4,2186.10,3040.19,1.39
-2.63609,-54.9374,15,150145,1501451,1501451 - Belterra - PA,16318,6852,9466,8481,7837,329,403,396,208,128,249,282,281,200,175,181,142,141,88,79,67,45,50,6,0,299,362,348,239,113,252,282,274,206,194,164,144,158,106,93,82,38,41,7,0,521,644,653,349,208,364,356,346,297,258,233,186,157,136,116,100,61,42,4,0,551,589,575,270,158,371,329,302,237,196,186,166,161,109,77,66,52,34,5,1,971.12,471.64,0.49
-1.36183,-48.2434,15,150150,1501501,1501501 - Benevides - PA,51651,28912,22739,25815,25836,1279,1481,1533,915,583,1388,1407,1256,1030,853,708,617,433,292,208,172,85,99,15,0,1185,1308,1512,924,632,1396,1490,1321,1105,890,683,597,454,332,271,183,115,127,29,4,1064,1204,1239,709,466,1149,1104,966,861,705,515,429,318,236,191,154,81,52,15,3,1081,1197,1196,736,435,1088,1083,980,832,682,506,423,308,232,178,122,91,84,22,2,1229.68,1187.24,0.97
-5.0424,-48.6047,15,150157,1501576,1501576 - Bom Jesus do Tocantins - PA,15298,8158,7140,8051,7247,356,388,465,282,161,418,341,289,243,240,189,153,129,123,84,70,47,54,7,0,373,413,483,261,164,375,389,323,242,213,216,157,152,127,81,53,44,45,6,2,369,380,422,237,153,390,352,297,281,245,224,164,174,129,73,53,38,23,8,0,348,359,368,176,124,306,294,247,205,161,139,120,104,72,41,27,20,14,3,0,1055.90,757.55,0.72
-1.36745,-47.3066,15,150160,1501600,1501600 - Bonito - PA,13630,3827,9803,7114,6516,199,193,217,114,72,200,208,168,120,109,59,71,59,37,33,27,23,19,3,0,220,203,177,133,89,195,192,143,122,99,87,62,43,46,23,28,15,15,4,0,565,555,538,296,214,539,507,450,355,277,221,164,173,108,80,62,40,30,9,0,508,529,510,310,201,462,480,352,276,231,174,179,111,87,78,47,44,36,4,1,777.83,463.99,0.60
-1.06126,-46.7826,15,150170,1501709,1501709 - Bragan‡a - PA,113227,72621,40606,57291,55936,3549,3666,3811,2379,1545,3716,3244,2717,2415,1952,1594,1352,1048,808,681,498,344,323,55,2,3404,3537,3871,2406,1645,4017,3511,2852,2443,2007,1617,1321,1119,938,717,560,433,429,90,5,2487,2478,2667,1539,938,2085,1771,1469,1281,986,864,789,654,523,422,296,174,140,28,1,2243,2426,2496,1316,751,1743,1651,1166,1047,898,717,659,553,429,347,224,171,145,32,0,1158.49,1035.85,0.89
-3.29792,-52.534,15,150172,1501725,1501725 - Brasil Novo - PA,15690,6899,8791,8314,7376,317,312,374,246,139,332,273,244,235,225,174,138,83,94,74,63,33,43,6,0,330,313,390,243,136,328,331,274,238,207,159,135,101,97,76,65,40,30,1,0,431,482,519,300,172,420,399,385,347,295,338,222,219,137,88,82,32,37,4,0,419,403,447,253,151,324,325,315,256,231,220,150,110,94,78,51,26,26,3,0,1210.36,924.62,0.76
-5.69822,-48.4103,15,150175,1501758,1501758 - Brejo Grande do Araguaia - PA,7317,4308,3009,3832,3485,246,260,234,147,93,185,196,142,114,120,83,91,74,52,37,24,35,22,3,0,229,220,234,174,78,207,193,166,124,99,105,91,77,45,33,30,23,17,5,0,155,172,177,116,66,158,134,129,102,90,94,68,63,54,38,28,13,15,2,0,130,132,173,101,50,129,89,119,66,76,63,60,56,27,29,15,10,8,2,0,952.18,497.95,0.52
-3.77191,-49.5735,15,150178,1501782,1501782 - Breu Branco - PA,52493,29308,23185,27085,25408,1719,1720,1870,960,583,1444,1360,1139,926,733,584,454,364,277,163,193,116,80,9,2,1710,1725,1809,1046,665,1536,1383,1129,874,720,514,419,359,237,216,137,61,51,21,0,1297,1416,1523,802,502,1167,1071,912,747,587,547,502,427,328,249,143,98,61,10,0,1307,1380,1475,683,429,1117,888,783,533,477,452,401,313,206,163,79,48,45,16,1,1441.01,1565.96,1.09
-1.68036,-50.4791,15,150180,1501808,1501808 - Breves - PA,92860,46560,46300,47788,45072,2493,2845,3253,1712,1049,2243,2066,1644,1387,1017,855,725,555,406,306,218,166,171,73,3,2419,2792,3166,1755,980,2282,1993,1795,1419,1083,864,733,620,395,336,251,189,178,116,7,3612,3634,3472,1756,969,2222,1735,1489,1217,971,781,678,595,464,430,226,153,129,65,3,3551,3444,3181,1588,817,1807,1444,1202,1015,784,604,515,501,361,329,208,132,138,73,5,1369.34,1224.10,0.89
-1.51762,-48.0381,15,150190,1501907,1501907 - Bujaru - PA,25695,8099,17596,13335,12360,368,414,448,297,185,382,351,300,245,242,171,127,112,90,84,57,40,31,6,0,383,443,483,287,199,407,348,299,266,257,157,141,120,89,85,73,44,59,7,2,1083,1255,1259,657,371,798,735,600,587,480,358,322,236,202,187,117,69,57,12,0,1061,1156,1056,595,319,690,649,595,495,367,286,198,214,154,157,98,65,39,15,2,1011.02,526.31,0.52
-1.75974,-46.5459,15,150195,1501956,1501956 - Cachoeira do Piri  - PA,26484,5532,20952,13720,12764,311,371,330,182,114,281,258,200,164,160,113,86,55,46,48,37,22,7,1,0,341,363,295,198,110,313,278,200,174,131,100,53,69,43,29,19,11,14,5,0,1371,1527,1407,628,430,1055,891,819,683,602,426,364,252,178,146,89,42,20,4,0,1389,1584,1335,577,365,1004,882,714,538,497,322,267,200,147,81,48,29,34,5,0,867.06,244.16,0.28
-1.01226,-48.9503,15,150200,1502004,1502004 - Cachoeira do Arari - PA,20443,7356,13087,10545,9898,352,391,416,288,146,369,300,267,200,200,176,157,110,71,60,57,41,34,7,1,360,368,433,270,157,320,300,289,234,199,172,134,110,101,93,55,51,47,20,0,717,750,822,442,281,668,633,500,430,414,319,229,204,137,124,101,68,53,10,0,719,695,693,373,255,609,609,406,334,327,281,192,160,135,121,98,73,80,23,2,1116.67,761.77,0.68
-2.24295,-49.4979,15,150210,1502103,1502103 - Camet  - PA,120896,52838,68058,62016,58880,2569,2680,2984,1800,1230,2821,2447,2076,1635,1287,1048,869,775,533,475,357,251,235,63,1,2526,2608,3025,1870,1257,2881,2565,2002,1588,1279,1047,916,774,651,541,445,293,317,111,6,4360,4577,4832,2549,1593,3504,2959,2446,1947,1556,1138,1050,984,721,679,416,272,226,67,4,4123,4250,4493,2270,1306,3091,2429,2031,1626,1359,1012,943,895,711,591,414,260,266,99,9,1333.26,875.21,0.66
-6.49659,-49.8776,15,150215,1502152,1502152 - CanaÆ dos Caraj s - PA,26716,20727,5989,13585,13131,1155,1088,1080,590,378,1040,1168,948,791,578,500,333,234,169,119,80,46,35,5,0,1093,1097,1153,657,435,1185,1163,1023,772,577,395,283,203,122,108,54,34,32,4,0,328,314,329,205,126,291,288,251,215,208,188,156,119,93,63,39,16,15,4,0,286,315,344,170,96,265,240,196,170,161,135,115,85,54,50,33,18,6,0,2,1880.47,2670.71,1.42
-1.20529,-47.1778,15,150220,1502202,1502202 - Capanema - PA,63639,50732,12907,31494,32145,2051,2317,2555,1548,957,2500,2273,1999,1791,1408,1271,1020,847,650,463,411,285,258,42,2,1958,2141,2559,1602,1012,2503,2527,2185,1925,1668,1449,1150,991,686,563,450,334,307,67,7,704,797,876,435,280,585,557,493,412,374,305,243,234,146,139,111,88,56,11,0,613,725,754,414,222,551,492,463,365,306,248,231,170,139,139,98,68,50,11,2,1088.19,1127.21,1.04
-1.74785,-47.0629,15,150230,1502301,1502301 - CapitÆo Po‡o - PA,51893,21441,30452,26621,25272,909,1049,1138,752,454,1064,939,815,716,653,510,360,330,236,192,167,125,114,12,0,875,1029,1205,804,480,1056,1020,861,754,689,504,428,329,246,214,191,113,93,13,2,1659,1872,2059,1190,658,1530,1283,1121,984,892,648,541,471,363,302,219,152,120,20,2,1469,1872,1979,1012,628,1358,1191,1012,829,665,557,473,381,298,248,172,84,116,22,0,889.28,606.90,0.68
-1.29797,-47.9167,15,150240,1502400,1502400 - Castanhal - PA,173149,153378,19771,84476,88673,6700,6964,7729,4676,3066,7871,7417,6296,5517,4640,3537,2921,2142,1506,1210,881,514,488,99,2,6621,6852,7576,4899,3312,8365,8069,7015,5781,4997,4072,3241,2465,1867,1471,1065,677,689,158,10,998,1160,1191,687,394,909,915,809,694,598,433,370,316,251,240,152,92,77,14,0,967,1043,1097,627,379,866,879,769,630,501,356,339,295,223,198,137,78,67,19,1,1094.63,866.72,0.79
-0.164154,-49.987,15,150250,1502509,1502509 - Chaves - PA,21005,2510,18495,11180,9825,149,162,166,100,50,116,108,88,67,59,47,35,34,19,23,14,10,12,2,2,132,198,170,88,51,106,97,92,72,67,34,27,32,23,17,14,15,9,2,1,1275,1272,1252,675,425,962,751,676,542,460,402,318,266,218,164,107,77,56,17,2,1208,1195,1164,555,349,806,621,549,442,389,295,254,243,149,134,94,65,41,22,3,1064.48,749.53,0.70
-0.936423,-48.2803,15,150260,1502608,1502608 - Colares - PA,11381,3661,7720,5879,5502,186,169,207,114,81,167,164,134,119,99,101,63,61,59,43,36,16,22,0,0,186,160,182,120,72,170,159,132,133,107,78,70,69,55,35,39,28,20,5,0,441,432,470,295,171,368,298,226,224,232,178,146,136,124,117,79,61,30,9,1,381,415,452,280,145,324,290,208,185,188,155,134,129,107,96,72,52,48,19,2,863.49,406.87,0.47
-8.26136,-49.2689,15,150270,1502707,1502707 - Concei‡Æo do Araguaia - PA,45557,32464,13093,23309,22248,1513,1622,1787,1069,642,1399,1376,1326,1012,913,736,588,499,421,364,286,205,166,33,2,1388,1590,1752,1087,608,1494,1438,1340,1182,973,810,708,575,469,378,279,211,180,39,4,584,706,890,468,242,447,446,505,479,527,408,407,374,321,229,156,86,62,11,2,545,649,690,343,161,389,414,373,427,376,344,298,240,198,131,83,37,32,10,3,1276.85,1046.49,0.82
-1.99238,-47.9422,15,150275,1502756,1502756 - Conc¢rdia do Par  - PA,28216,15088,13128,14590,13626,832,816,876,510,351,816,650,597,496,406,246,230,189,159,131,86,60,70,21,1,740,765,816,558,388,834,737,612,532,395,259,204,169,151,123,104,67,71,20,0,890,872,856,501,304,736,593,504,381,324,247,172,184,154,146,78,58,36,11,0,806,760,828,420,249,579,532,393,322,260,183,171,161,146,106,65,36,50,12,2,1132.04,897.92,0.79
-7.81097,-50.7698,15,150276,1502764,1502764 - Cumaru do Norte - PA,10466,2711,7755,6081,4385,162,164,157,79,55,120,101,118,90,95,96,64,55,38,29,9,9,2,2,0,166,145,146,98,44,114,108,113,79,92,56,40,32,16,10,4,1,2,0,0,392,403,375,204,116,363,466,478,374,378,363,263,180,145,78,36,16,6,0,0,409,378,362,163,93,315,326,295,203,178,141,106,71,31,26,10,7,5,0,0,1347.02,1008.77,0.75
-6.09965,-49.6068,15,150277,1502772,1502772 - Curion¢polis - PA,18288,12530,5758,9666,8622,694,642,738,438,283,608,524,477,347,312,313,257,199,157,115,100,72,61,7,0,613,659,748,440,289,624,522,481,345,317,290,230,212,141,114,80,38,34,8,1,258,285,327,221,111,226,184,166,136,129,223,248,190,167,168,161,80,37,5,0,228,255,286,174,98,221,147,154,131,161,142,148,115,62,53,37,16,6,2,0,1920.26,2391.90,1.25
-1.81179,-49.7952,15,150280,1502806,1502806 - Curralinho - PA,28549,10930,17619,15059,13490,676,687,725,412,248,574,516,391,283,236,170,139,138,88,87,56,42,34,25,4,640,715,706,432,261,528,481,337,313,189,177,141,120,102,89,59,39,38,27,5,1480,1385,1344,687,391,893,700,600,498,350,301,218,192,154,122,90,58,30,33,2,1326,1273,1228,610,354,705,584,469,363,263,233,191,137,110,91,58,29,27,36,4,1468.36,930.44,0.63
-1.88775,-55.1168,15,150285,1502855,1502855 - Curu  - PA,12254,5781,6473,6456,5798,347,401,358,242,118,284,249,194,145,129,108,104,78,52,53,31,22,20,4,0,358,388,388,195,127,248,239,196,153,132,109,88,55,43,42,34,18,17,12,0,434,476,435,229,147,327,289,227,195,166,144,117,97,75,57,40,29,28,5,0,377,461,402,176,107,261,215,188,140,124,130,101,74,59,61,35,23,16,6,0,869.99,295.31,0.34
-0.733214,-47.8515,15,150290,1502905,1502905 - Curu‡  - PA,34294,12174,22120,17568,16726,546,617,698,423,249,588,507,477,375,307,278,269,167,187,148,107,95,64,14,0,535,625,667,385,242,573,519,419,359,339,292,261,179,183,159,126,92,83,20,0,1068,1256,1307,797,475,1076,854,781,673,620,549,459,393,343,266,226,169,122,18,0,1111,1301,1258,666,390,897,835,722,572,564,436,432,357,312,259,216,174,116,46,4,1135.65,1117.76,0.98
-4.1994424,-47.8245049,15,150293,1502939,1502939 - Dom Eliseu - PA,51319,32516,18803,26624,24695,1776,1867,1882,1049,669,1601,1594,1358,1089,901,700,529,403,320,179,141,93,56,14,0,1663,1756,1897,994,665,1785,1637,1402,1115,915,748,577,384,258,212,126,88,63,10,0,962,1099,1136,614,490,1138,959,930,708,633,482,407,265,228,138,95,68,47,3,1,868,993,1000,528,328,879,761,674,566,460,396,270,243,157,116,78,34,43,5,1,1189.32,1019.55,0.86
-6.10389,-49.3553,15,150295,1502954,1502954 - Eldorado dos Caraj s - PA,31786,16578,15208,16814,14972,928,986,1003,568,330,875,672,603,460,439,404,300,218,203,150,97,71,53,5,1,905,940,999,601,373,861,744,624,477,425,342,270,201,184,114,76,44,28,4,0,866,928,1011,548,308,756,598,578,509,450,487,405,320,261,214,100,67,30,12,0,803,813,880,414,259,604,517,479,369,410,350,272,244,149,90,53,26,22,6,0,1079.78,766.18,0.71
-2.16805,-56.7405,15,150300,1503002,1503002 - Faro - PA,8177,6128,2049,4240,3937,358,420,385,266,123,260,228,204,184,150,130,105,98,73,62,48,31,21,2,0,351,389,383,237,117,245,226,196,166,114,126,106,93,59,57,49,26,32,7,1,155,135,129,72,38,112,95,60,66,41,49,39,23,26,13,17,9,10,3,0,158,130,114,59,62,94,74,50,43,34,34,31,23,12,21,5,8,3,2,0,1210.13,1133.08,0.94
-7.55335,-49.7125,15,150304,1503044,1503044 - Floresta do Araguaia - PA,17768,8714,9054,9551,8217,483,492,504,317,191,391,415,377,329,245,212,160,110,79,69,45,29,33,4,0,455,448,506,301,183,414,383,418,295,220,174,131,87,77,52,31,31,19,3,1,446,507,531,313,198,446,387,385,320,330,244,270,209,168,129,84,61,33,5,0,402,438,490,260,135,332,327,332,249,228,208,169,154,97,70,56,21,17,2,1,1826.99,1437.75,0.79
-1.92986,-47.0505,15,150307,1503077,1503077 - GarrafÆo do Norte - PA,25034,8607,16427,13107,11927,409,480,515,282,214,409,353,307,264,239,169,142,108,113,97,79,53,43,5,1,385,502,525,328,174,398,385,329,264,229,181,140,126,116,97,60,43,36,7,0,961,1111,1181,682,402,833,757,593,488,441,346,238,239,183,176,78,59,45,11,1,926,1068,1072,584,328,726,614,492,421,324,241,216,178,131,117,75,43,35,11,0,1069.31,672.10,0.63
-3.84338,-49.0974,15,150309,1503093,1503093 - Goian‚sia do Par  - PA,30436,21082,9354,15750,14686,1142,1180,1219,652,446,1091,1074,963,721,538,466,364,249,170,133,107,57,43,5,1,1187,1151,1255,691,442,1161,1112,936,605,513,408,288,244,156,113,100,53,37,9,0,471,462,535,309,228,469,469,422,345,286,270,235,244,141,105,74,39,25,0,0,479,440,494,266,183,424,368,320,248,253,193,184,147,103,56,46,10,8,2,1,1120.39,735.26,0.66
-1.41412,-51.6338,15,150310,1503101,1503101 - Gurup  - PA,29062,9580,19482,15400,13662,563,604,624,334,196,500,388,325,291,229,194,114,95,94,77,58,49,41,12,1,530,578,569,410,208,497,423,309,280,214,161,102,99,124,121,67,43,45,8,3,1396,1470,1505,741,429,1013,848,690,590,437,369,321,236,202,158,94,55,42,13,2,1324,1361,1319,648,360,832,612,555,429,308,266,248,186,123,124,65,62,44,5,0,1107.35,548.54,0.50
-1.1253918,-47.625988,15,150320,1503200,1503200 - Igarap‚-A‡u - PA,35887,21207,14680,18117,17770,928,1010,1158,685,453,1023,950,791,657,598,463,399,327,280,243,161,114,83,24,0,876,1044,1108,752,477,1084,990,774,726,629,505,450,375,280,262,213,141,128,41,5,683,835,919,553,325,742,711,534,462,398,347,299,278,210,177,124,82,70,21,0,662,721,843,505,294,630,576,478,429,382,323,243,250,181,147,102,73,55,15,1,1036.33,683.30,0.66
-1.9753259,-48.9574547,15,150330,1503309,1503309 - Igarap‚-Miri - PA,58077,26205,31872,29674,28403,1289,1303,1399,872,505,1328,1196,1061,859,640,542,479,389,296,228,155,125,123,37,3,1310,1247,1382,912,542,1430,1292,1097,807,711,528,518,420,286,298,211,155,147,77,6,2015,1965,2049,1301,778,1767,1364,1193,932,775,630,532,467,338,281,192,132,94,39,1,1940,1830,1917,1163,700,1505,1232,985,755,658,525,435,370,303,245,182,119,99,58,6,1286.95,882.11,0.69
-1.4349,-47.9114,15,150340,1503408,1503408 - Inhangapi - PA,10037,2771,7266,5170,4867,120,121,127,100,64,154,128,115,75,72,49,54,46,22,34,19,12,10,2,1,115,155,144,105,57,168,137,89,98,87,61,54,53,38,33,19,19,10,4,0,363,427,474,239,177,364,285,285,219,232,189,138,111,118,82,63,31,43,5,0,349,358,411,241,133,350,285,218,217,175,161,133,119,80,67,48,31,41,4,0,1061.95,510.26,0.48
-2.55992,-47.5059,15,150345,1503457,1503457 - Ipixuna do Par  - PA,51309,12227,39082,26904,24405,759,733,690,359,257,667,570,469,354,310,241,201,128,117,88,44,40,28,4,1,731,789,734,407,282,683,623,476,360,287,231,185,106,91,89,41,24,24,2,2,1938,2458,2690,1203,871,2282,2016,1958,1373,1215,707,592,468,442,288,220,59,55,9,0,1838,2134,2463,1142,820,2147,1914,1583,1252,863,553,426,429,275,198,101,54,40,6,0,1381.00,1178.60,0.85
-1.76984,-47.446,15,150350,1503507,1503507 - Irituia - PA,31364,6524,24840,16261,15103,336,341,334,203,131,312,288,236,189,154,117,93,116,88,71,45,39,34,12,3,303,359,373,208,126,315,288,285,204,178,146,134,116,94,76,63,46,54,12,2,1352,1486,1665,917,557,1211,1010,910,820,722,483,420,434,387,289,189,132,109,25,1,1310,1457,1391,771,454,1031,949,825,691,558,414,396,395,321,275,185,127,130,38,3,1011.54,651.83,0.64
-4.2667,-55.9926,15,150360,1503606,1503606 - Itaituba - PA,97493,70682,26811,49681,47812,3285,3693,4227,2373,1405,3510,3316,2636,2089,1928,1750,1337,1023,751,563,422,289,197,32,1,3354,3674,4274,2648,1492,3661,3444,2806,2243,1987,1609,1411,1042,739,534,388,278,224,43,4,1204,1447,1635,911,510,1189,1319,1242,1102,1048,947,784,542,403,275,140,88,58,10,0,1250,1309,1458,753,382,1108,1084,1001,804,717,611,502,380,242,151,92,57,48,8,0,1420.96,1566.35,1.10
-5.13272,-49.3358,15,150370,1503705,1503705 - Itupiranga - PA,51220,20490,30730,27026,24194,1214,1179,1351,742,426,985,837,742,599,458,356,324,266,228,218,151,98,97,15,3,1117,1181,1283,795,433,1003,903,769,567,456,377,323,287,215,183,125,87,79,16,2,1780,1922,2009,1060,597,1474,1380,1209,1006,908,782,718,680,483,322,211,116,69,11,0,1698,1745,1769,893,503,1379,1227,994,764,699,628,558,459,305,167,94,57,44,9,1,1138.06,702.60,0.62
-6.21469,-57.7544,15,150375,1503754,1503754 - Jacareacanga - PA,14103,4930,9173,8037,6066,329,359,345,142,108,213,212,155,154,147,134,102,83,49,36,29,18,12,0,0,271,304,302,160,78,202,217,170,142,138,104,76,53,35,16,19,7,9,0,0,541,509,432,200,177,551,456,506,416,548,403,303,156,107,57,20,17,10,1,0,538,485,392,191,139,420,364,262,249,242,193,119,55,59,27,7,10,10,1,0,1338.96,906.61,0.68
-4.44617,-49.1153,15,150380,1503804,1503804 - Jacund  - PA,51360,45683,5677,25769,25591,2178,2354,2454,1477,1020,2562,2110,1903,1471,1362,928,720,544,414,392,256,173,149,37,1,2300,2250,2627,1605,1031,2633,2321,1891,1590,1300,928,719,625,406,357,269,161,136,27,2,254,324,343,185,113,314,293,282,259,226,180,152,119,91,44,41,26,18,0,0,264,280,271,142,88,232,230,191,186,154,109,87,71,45,29,12,13,8,1,0,1177.90,963.82,0.82
-2.16347,-56.0889,15,150390,1503903,1503903 - Juruti - PA,47086,15852,31234,24578,22508,841,786,896,587,389,910,743,607,461,382,289,250,210,132,133,96,77,67,8,0,870,857,975,575,368,903,740,572,427,375,291,224,204,159,151,84,99,94,19,1,2291,2387,2290,1144,653,1447,1311,1096,910,689,589,529,421,300,265,146,112,115,18,1,2129,2297,2108,965,511,1257,1128,894,677,540,449,414,353,229,202,119,104,116,26,2,1697.42,2034.29,1.20
-1.8985,-49.3903,15,150400,1504000,1504000 - Limoeiro do Ajuru - PA,25021,6197,18824,13115,11906,325,358,441,222,133,328,291,213,200,150,131,96,72,48,40,28,25,16,9,0,320,380,354,230,158,302,285,232,183,134,109,105,74,58,50,38,18,26,13,2,1221,1203,1341,707,476,1041,808,731,565,493,346,269,227,181,142,88,60,64,25,1,1086,1243,1237,646,422,880,658,582,476,359,264,248,203,147,130,92,67,67,24,4,1249.18,792.89,0.63
-2.05683,-47.5601,15,150405,1504059,1504059 - MÆe do Rio - PA,27904,23052,4852,13740,14164,1148,1251,1241,713,465,1083,1021,868,726,671,447,389,331,265,218,173,115,106,21,0,1118,1210,1265,755,509,1223,1082,969,829,667,443,452,347,274,260,146,105,108,38,0,253,291,322,176,111,222,202,171,161,106,94,75,98,52,58,38,33,23,2,0,290,268,330,167,106,211,163,144,143,132,89,73,72,51,44,22,23,31,5,0,1120.23,803.84,0.72
-0.803391,-47.6014,15,150410,1504109,1504109 - MagalhÆes Barata - PA,8115,3795,4320,4258,3857,198,200,210,134,78,190,166,129,96,115,89,75,59,71,44,48,26,27,7,0,165,184,213,115,67,164,165,135,87,87,82,89,59,60,46,55,27,25,8,0,223,283,285,203,98,189,160,137,118,109,90,68,98,71,63,33,36,25,7,0,221,247,259,149,68,157,159,128,98,99,91,81,62,72,49,26,24,22,12,0,1113.72,704.64,0.63
-5.38075,-49.1327,15,150420,1504208,1504208 - Marab  - PA,233669,186270,47399,118196,115473,9781,9425,9535,5641,3737,10218,9844,8267,6226,5247,4207,3287,2488,1631,1197,837,654,466,83,9,9453,9025,9732,5893,3918,10420,10171,8308,6478,5277,4356,3221,2299,1551,1198,1000,617,483,83,7,2749,2815,2937,1650,940,2400,2109,1837,1615,1381,1203,1065,859,659,503,366,176,127,25,0,2630,2753,2678,1355,848,2087,1849,1589,1303,1206,939,860,673,474,330,194,112,87,14,2,1569.24,1604.28,1.02
-0.778899,-47.452,15,150430,1504307,1504307 - MaracanÆ - PA,28376,11656,16720,14699,13677,518,573,715,431,216,520,447,434,337,301,255,215,183,185,143,113,75,73,32,2,526,669,701,442,253,476,498,385,318,309,280,217,200,153,150,123,80,76,27,5,869,987,1157,645,362,762,677,572,514,455,365,345,326,278,248,146,107,82,31,3,821,1032,1012,573,277,615,544,468,420,359,333,303,270,208,201,146,90,77,38,2,1001.94,587.98,0.59
-0.714702,-47.7034,15,150440,1504406,1504406 - Marapanim - PA,26605,11704,14901,13884,12721,431,532,738,419,221,486,469,428,385,358,273,247,231,171,186,131,84,86,27,2,429,517,628,401,214,467,487,420,378,321,290,278,216,198,171,129,109,108,36,2,759,915,978,592,315,680,611,516,467,402,328,340,303,232,200,139,107,75,20,0,711,839,860,506,255,562,531,449,388,317,286,268,249,207,172,137,84,67,33,1,1228.07,820.40,0.67
-1.36002,-48.3421,15,150442,1504422,1504422 - Marituba - PA,108246,107123,1123,53884,54362,4954,5313,5615,2995,1999,5352,5393,5415,4233,3449,2498,2056,1391,969,667,468,269,229,59,3,4663,4932,5321,3092,2056,5655,5929,5374,4485,3437,2507,1901,1433,1034,767,509,330,289,70,12,53,57,54,25,16,65,35,40,42,41,26,36,20,19,12,7,5,4,0,0,63,61,54,25,23,71,47,48,34,33,22,24,13,18,15,7,3,3,2,0,1356.10,1425.12,1.05
-3.44637,-52.8875,15,150445,1504455,1504455 - Medicilƒndia - PA,27328,9559,17769,14888,12440,491,558,520,296,200,482,406,378,273,274,252,181,144,106,106,62,54,43,3,0,455,501,513,350,228,464,473,392,293,267,211,176,137,90,71,52,30,25,2,0,877,1045,1070,655,389,1005,927,822,705,637,530,441,342,236,166,115,52,40,5,0,834,890,918,539,321,748,685,613,500,443,346,280,215,146,104,53,36,34,5,0,1369.55,1133.39,0.83
-1.8032,-50.7149,15,150450,1504505,1504505 - Melga‡o - PA,24808,5503,19305,13227,11581,398,435,400,206,119,266,239,192,144,110,92,52,49,30,30,8,20,19,8,0,370,399,355,185,118,268,230,203,138,100,87,64,49,34,25,23,8,14,16,0,1538,1469,1558,816,490,1014,827,670,519,409,267,192,235,143,98,67,37,41,18,2,1419,1325,1302,704,392,839,712,586,458,301,218,194,145,86,81,47,32,28,25,1,1567.08,1080.37,0.69
-2.5831,-49.5042,15,150460,1504604,1504604 - Mocajuba - PA,26731,18279,8452,13747,12984,910,1095,1135,655,418,952,787,619,531,464,317,288,246,212,182,132,116,84,21,3,901,1049,1162,701,362,916,731,608,547,454,356,295,238,215,168,172,105,96,30,6,559,663,645,319,199,411,358,284,212,219,155,118,132,95,85,67,36,18,5,0,578,584,526,246,140,355,265,234,197,161,132,131,88,76,63,41,30,15,9,1,1447.18,1038.28,0.72
-1.88993,-48.7668,15,150470,1504703,1504703 - Moju - PA,70018,25162,44856,36666,33352,1356,1461,1513,931,559,1336,1174,997,822,621,483,375,296,217,168,130,91,74,16,1,1362,1397,1553,895,593,1370,1199,971,787,604,432,369,285,199,191,127,93,90,22,2,2794,2941,3074,1730,993,2322,1991,1762,1352,1163,981,777,700,500,418,231,148,136,31,1,2769,2851,2814,1534,853,1952,1651,1393,1148,893,742,586,513,353,305,199,116,99,40,0,1118.24,988.80,0.88
-1.99768,-54.0724,15,150480,1504802,1504802 - Monte Alegre - PA,55462,24565,30897,28508,26954,1036,1315,1347,893,443,1047,952,901,783,661,519,455,417,333,264,230,177,154,20,3,1007,1256,1440,1015,512,1100,1060,945,818,619,541,536,469,380,308,250,166,162,31,0,1597,1980,2181,1246,619,1300,1207,1149,1051,941,766,639,506,422,378,267,161,131,16,1,1598,1830,1967,994,506,1103,1097,1073,863,692,618,488,465,305,281,194,138,105,21,1,1186.41,844.27,0.71
-1.53936,-49.2224,15,150490,1504901,1504901 - Muan  - PA,34204,14521,19683,17906,16298,721,864,863,526,326,781,705,518,473,365,286,267,191,144,116,82,74,61,15,2,730,793,789,548,313,729,637,561,447,390,292,230,190,142,108,84,70,63,23,2,1258,1327,1315,751,406,1009,902,809,645,482,406,319,276,221,160,99,73,54,13,1,1190,1254,1249,564,372,899,794,634,517,391,324,263,221,153,112,88,55,60,17,0,1262.23,991.95,0.79
-2.26693,-46.9731,15,150495,1504950,1504950 - Nova Esperan‡a do Piri  - PA,20158,7964,12194,10643,9515,492,492,489,313,150,364,356,318,255,200,163,103,82,87,67,40,19,10,3,0,451,510,480,292,192,406,389,371,236,173,115,100,65,63,53,33,16,15,0,1,807,790,844,448,300,677,598,498,387,333,237,193,178,162,84,52,36,15,1,0,744,798,820,415,220,535,444,353,325,228,189,153,128,88,49,30,19,15,1,0,825.49,522.10,0.63
-4.91622,-49.0822,15,150497,1504976,1504976 - Nova Ipixuna - PA,14645,7726,6919,7731,6914,411,439,469,261,163,362,364,317,245,213,158,125,89,89,91,46,33,21,6,0,388,460,422,283,151,402,354,314,237,185,144,114,117,92,67,41,24,21,7,1,367,385,424,248,132,330,304,277,217,214,198,192,177,132,101,58,42,28,3,0,355,352,404,199,126,254,225,205,181,143,151,154,121,83,63,33,20,18,3,0,1275.98,1308.23,1.03
-1.20874,-47.3921,15,150500,1505007,1505007 - Nova Timboteua - PA,13670,5520,8150,7082,6588,197,259,257,176,94,253,239,203,208,171,146,120,126,87,68,58,43,37,8,1,191,253,265,162,101,249,238,194,192,179,140,147,103,87,76,76,56,47,12,1,391,443,423,275,180,381,399,356,283,264,187,167,156,129,110,83,44,52,7,1,345,354,425,219,127,378,351,313,242,211,182,174,121,130,99,60,39,33,16,0,993.27,873.19,0.88
-7.14347,-55.3786,15,150503,1505031,1505031 - Novo Progresso - PA,25124,17717,7407,13435,11689,910,964,982,560,325,831,773,743,651,700,617,441,281,182,100,52,28,14,2,0,851,911,1070,606,328,833,811,751,681,556,409,317,193,114,56,36,21,16,1,0,362,331,394,190,149,351,361,364,368,336,333,243,196,146,83,42,19,10,0,1,311,323,313,152,97,290,311,309,223,217,187,125,111,69,43,22,11,14,0,0,1225.33,1382.51,1.13
-4.24749,-49.9499,15,150506,1505064,1505064 - Novo Repartimento - PA,62050,27950,34100,32748,29302,1522,1623,1708,948,557,1342,1227,1044,912,744,550,480,367,306,241,159,111,73,8,1,1484,1569,1763,1093,676,1462,1331,1099,869,668,548,389,343,250,191,149,76,60,7,0,2137,2130,2281,1250,687,1620,1571,1439,1122,980,910,724,671,515,359,210,136,71,11,1,1924,2069,1944,970,511,1397,1332,1161,821,772,657,582,454,283,183,112,60,33,10,0,1227.31,1325.23,1.08
-1.90107,-55.5208,15,150510,1505106,1505106 - àbidos - PA,49333,25466,23867,25563,23770,1344,1372,1457,859,471,1033,1003,974,803,680,567,503,404,334,303,248,147,139,17,1,1245,1346,1411,916,498,1084,1110,964,829,661,509,470,469,381,315,241,150,172,34,2,1564,1632,1563,833,504,1097,1007,897,756,678,551,475,395,305,294,174,88,74,16,1,1505,1554,1434,709,379,884,873,702,550,474,439,327,348,228,206,147,91,86,24,3,1095.11,842.60,0.77
-2.00358,-49.8628,15,150520,1505205,1505205 - Oeiras do Par  - PA,28595,11432,17163,15017,13578,724,733,824,429,286,581,466,397,322,220,177,145,145,115,77,71,39,44,31,1,624,702,764,405,241,539,497,405,314,235,202,139,129,111,100,65,40,48,42,3,1425,1346,1215,640,373,805,689,573,497,403,268,243,213,177,145,86,43,31,18,0,1252,1282,1156,533,299,667,604,493,414,332,243,166,184,116,104,53,26,28,20,1,1498.43,916.48,0.61
-1.75989,-55.8579,15,150530,1505304,1505304 - Oriximin  - PA,62794,40147,22647,31756,31038,2174,2384,2552,1419,766,1820,1618,1415,1161,978,793,633,576,434,363,300,175,158,21,0,2184,2395,2532,1561,831,1810,1795,1595,1175,969,802,732,542,422,354,256,225,197,29,1,1515,1593,1516,745,398,962,958,821,753,621,533,472,349,271,229,137,79,54,10,0,1433,1494,1402,647,348,893,897,782,634,461,435,356,269,207,162,93,56,54,6,2,2001.00,2200.20,1.10
-1.54168,-47.1126,15,150540,1505403,1505403 - Our‚m - PA,16311,7438,8873,8443,7868,315,418,442,272,162,341,305,294,240,221,168,137,106,76,76,70,55,29,4,1,313,368,396,256,153,322,321,285,250,209,179,125,135,112,94,71,39,68,10,0,511,509,601,342,181,411,413,345,244,254,201,148,157,125,104,74,43,39,9,0,453,481,533,286,164,393,337,287,231,191,185,153,140,100,91,54,35,39,9,0,931.39,627.37,0.67
-6.7529,-51.0858,15,150543,1505437,1505437 - Ourilƒndia do Norte - PA,27359,19913,7446,14270,13089,1032,987,998,630,406,1219,1164,920,756,651,437,334,219,145,124,82,57,36,4,0,920,1020,1072,739,481,1121,1066,878,677,538,396,234,171,132,106,75,52,30,4,0,437,437,467,276,144,340,306,323,281,322,222,166,133,88,59,38,18,11,1,0,398,416,463,202,116,287,295,264,270,156,158,116,104,47,40,26,8,11,0,0,2547.14,2968.90,1.17
-3.8354194,-50.6399231,15,150548,1505486,1505486 - Pacaj  - PA,39979,13747,26232,21599,18380,718,790,838,495,288,710,617,526,444,359,270,208,170,133,132,102,65,51,6,1,777,735,816,539,281,740,655,565,405,322,233,188,147,127,118,89,42,38,5,2,1531,1576,1789,937,592,1330,1259,1034,883,812,689,633,556,416,278,188,95,70,7,1,1443,1391,1505,844,430,1086,925,794,653,578,538,425,366,232,151,99,58,28,9,1,1425.85,950.99,0.67
-5.74027,-48.3181,15,150549,1505494,1505494 - Palestina do Par  - PA,7475,4546,2929,3879,3596,254,259,223,140,100,216,218,175,137,99,88,71,75,87,50,49,28,28,4,1,249,238,239,140,104,211,209,167,117,96,89,100,82,66,42,31,23,36,5,0,130,179,166,138,72,125,115,111,92,94,95,67,60,52,31,31,13,5,0,1,128,146,179,96,60,117,103,89,83,69,76,55,54,33,26,16,12,8,1,1,1201.27,770.84,0.64
-3.00212,-47.3527,15,150550,1505502,1505502 - Paragominas - PA,97819,76511,21308,49267,48552,4050,4104,4234,2331,1441,4123,3987,3305,2668,2203,1598,1328,901,607,431,297,158,148,25,2,3911,4074,4224,2499,1643,4371,4190,3417,2715,2181,1576,1212,916,608,396,272,190,145,29,1,1321,1341,1363,674,456,1024,1093,927,771,587,492,408,318,213,163,83,51,38,3,0,1326,1287,1290,639,389,1010,940,782,596,514,352,309,236,117,94,45,33,20,3,0,1418.56,1659.09,1.17
-6.06781,-49.9037,15,150553,1505536,1505536 - Parauapebas - PA,153908,138690,15218,77893,76015,7672,6814,6857,3854,2675,8416,8803,6837,5045,3900,3041,2270,1507,928,566,366,268,206,27,2,7251,6717,7009,4301,3048,8773,8427,6681,4717,3669,2678,1952,1269,744,532,405,246,185,30,2,862,823,937,528,274,606,627,628,572,516,477,379,210,169,103,71,36,17,4,0,818,909,931,453,259,642,695,629,581,443,333,252,166,118,75,35,21,15,4,0,2284.71,2352.55,1.03
-1.5977166,-46.9267654,15,150555,1505551,1505551 - Pau D'Arco - PA,6033,3641,2392,3178,2855,156,180,223,150,63,185,155,151,129,119,72,57,51,51,37,36,22,19,1,0,184,171,209,132,66,184,145,146,120,101,75,50,66,44,35,31,11,8,5,1,99,136,153,99,43,117,100,76,82,90,63,69,59,41,50,25,12,6,1,0,112,104,117,78,39,94,61,88,77,65,58,48,46,31,19,15,9,7,3,0,1180.20,697.78,0.59
-1.1938239,-47.3240318,15,150560,1505601,1505601 - Peixe-Boi - PA,7854,4169,3685,4039,3815,159,203,211,127,68,200,183,158,109,119,121,98,83,68,49,46,43,30,7,2,162,184,224,137,72,184,164,145,132,127,118,113,90,57,49,50,31,39,4,3,185,192,219,118,72,172,183,142,122,111,92,80,88,57,48,22,30,18,4,0,152,204,199,116,62,172,154,124,110,92,77,63,49,48,34,24,27,19,2,2,1019.00,843.54,0.83
-6.43778,-48.8716,15,150563,1505635,1505635 - Pi‡arra - PA,12697,3581,9116,6776,5921,188,195,213,107,77,168,166,138,126,91,80,72,45,46,27,13,18,13,2,0,199,169,202,127,75,195,150,168,126,102,71,61,50,37,19,18,10,17,0,0,481,554,603,294,170,412,406,377,397,291,255,200,172,143,114,66,32,22,2,0,431,487,508,273,146,348,363,325,266,236,191,159,143,102,58,46,18,23,2,0,1053.18,568.00,0.54
-3.86813,-54.2124,15,150565,1505650,1505650 - Placas - PA,23934,4854,19080,12568,11366,249,258,270,165,120,248,235,206,180,140,96,79,68,76,37,44,21,10,1,0,240,256,247,181,96,252,236,176,146,113,114,89,66,44,35,31,14,14,1,0,1055,1206,1073,580,393,909,955,929,656,531,499,393,290,251,170,104,42,27,2,0,1176,1191,1132,559,352,851,968,711,501,400,353,265,222,140,91,63,30,8,2,0,1333.97,903.67,0.68
